volcano,volcanoLabel,latitude,longitude
http://www.wikidata.org/entity/Q791652,Avachinsky,53.255555555556,158.83333333333
http://www.wikidata.org/entity/Q765048,Loki Patera,13.01,308.79
http://www.wikidata.org/entity/Q1140202,Tvashtar Paterae,62.76,236.47
http://www.wikidata.org/entity/Q839630,Koryaksky,53.316666666667,158.68333333333
http://www.wikidata.org/entity/Q1472301,Uranius Mons,26.9,267.85
http://www.wikidata.org/entity/Q1554199,Gula Mons,21.9,359.1
http://www.wikidata.org/entity/Q1322653,Gorely,52.558333333333,158.03333333333
http://www.wikidata.org/entity/Q992791,Syrtis Major Planum,9.2,67.1
http://www.wikidata.org/entity/Q969968,Silay,10.76666667,123.23333333
http://www.wikidata.org/entity/Q776480,Krýsuvík,63.875,-22.063
http://www.wikidata.org/entity/Q886940,Bláhnjúkur,63.9768,-19.0681
http://www.wikidata.org/entity/Q874092,Ciomadul,46.13,25.88
http://www.wikidata.org/entity/Q791652,Avachinsky,53.255,158.83277777778
http://www.wikidata.org/entity/Q760819,Mount Popomanaseu,-9.7036111111111,160.06194444444
http://www.wikidata.org/entity/Q1037278,Agnano,40.84472222,14.14972222
http://www.wikidata.org/entity/Q1055937,Q1055937,-22.260833333333,-67.415555555556
http://www.wikidata.org/entity/Q1140054,Kell,51.65,157.35
http://www.wikidata.org/entity/Q1034530,Capelinhos,38.601322222222,-28.831569444444
http://www.wikidata.org/entity/Q717453,Mount Tateshina,36.10421,138.29586
http://www.wikidata.org/entity/Q1138683,Mount Mihara,34.724444444444,139.39472222222
http://www.wikidata.org/entity/Q1083948,Mount Serua,-6.3,130.0
http://www.wikidata.org/entity/Q757314,Atlasov Island,50.866666666667,155.56666666667
http://www.wikidata.org/entity/Q747135,Grodczyn,50.4142,16.333344444444
http://www.wikidata.org/entity/Q991004,Broutona,46.716666666667,150.73333333333
http://www.wikidata.org/entity/Q747584,Macizo de Teno,28.3,-16.85
http://www.wikidata.org/entity/Q1047509,Mount Bental,33.129166666667,35.782777777778
http://www.wikidata.org/entity/Q713847,Mount Kaimon,31.18,130.52833333333
http://www.wikidata.org/entity/Q1147502,Marchena Island,0.35,-90.5
http://www.wikidata.org/entity/Q791652,Avachinsky,53.255555555556,158.83333333333
http://www.wikidata.org/entity/Q842154,Brennisteinsfjöll,63.916666666667,-21.833333333333
http://www.wikidata.org/entity/Q842154,Brennisteinsfjöll,63.916666666667,-21.833333333333
http://www.wikidata.org/entity/Q783798,Mount Cleveland,52.822222222222,-169.945
http://www.wikidata.org/entity/Q794264,Volcán Azufral,1.0852638888889,-77.718758333333
http://www.wikidata.org/entity/Q937424,Mentolat,-44.696666666667,-73.075833333333
http://www.wikidata.org/entity/Q753924,Pacaya,14.380833333333,-90.601111111111
http://www.wikidata.org/entity/Q955177,San Antonio,28.485919444444,-17.848244444444
http://www.wikidata.org/entity/Q1143359,Culann Patera,-20.216666666667,-160.16666666667
http://www.wikidata.org/entity/Q758574,Aucanquilcha,-21.216666666667,-68.466666666667
http://www.wikidata.org/entity/Q1157658,Daisetsuzan Volcanic Group,43.65,142.85
http://www.wikidata.org/entity/Q804562,Bal Haf,14.05,48.333333333333
http://www.wikidata.org/entity/Q797800,Babuyan Claro,19.523333333333,121.94
http://www.wikidata.org/entity/Q805915,Bam,-3.6166666666667,144.81666666667
http://www.wikidata.org/entity/Q1067452,Concepción,11.533333333333,-85.616666666667
http://www.wikidata.org/entity/Q928681,Mount Pico,38.468611111111,-28.399166666667
http://www.wikidata.org/entity/Q747584,Macizo de Teno,28.3,-16.85
http://www.wikidata.org/entity/Q1048209,Floreana Island,-1.2975,-90.434166666667
http://www.wikidata.org/entity/Q1139840,Puntiagudo-Cordón Cenizos,-40.969444444444,-72.263888888889
http://www.wikidata.org/entity/Q1055899,Mount Hudson,-45.916666666667,-72.966666666667
http://www.wikidata.org/entity/Q1055899,Mount Hudson,-45.916666666667,-72.966666666667
http://www.wikidata.org/entity/Q978441,Jabal al-Tair Island,15.54,41.83
http://www.wikidata.org/entity/Q849364,Tunupa volcano,-19.83,-67.64
http://www.wikidata.org/entity/Q937167,Rano Raraku,-27.123888888889,-109.28611111111
http://www.wikidata.org/entity/Q799818,Bagabag,-4.8,146.23333333333
http://www.wikidata.org/entity/Q829207,Berutarube,44.46131,146.93163
http://www.wikidata.org/entity/Q1143300,Cuicocha,0.30055555555556,-78.362777777778
http://www.wikidata.org/entity/Q1062516,Española Island,-1.3666666666667,-89.683333333333
http://www.wikidata.org/entity/Q890128,Harrat Lunayyir,25.17,37.75
http://www.wikidata.org/entity/Q1162021,Mount Masaraga,13.310277777778,123.6
http://www.wikidata.org/entity/Q1089657,Chupiquiña,-17.666666666667,-69.8
http://www.wikidata.org/entity/Q1189723,Mount Gharat,-14.2839,167.517
http://www.wikidata.org/entity/Q1064098,Pinta Island,0.5833,-90.753588888889
http://www.wikidata.org/entity/Q829207,Berutarube,44.475,146.92722222222
http://www.wikidata.org/entity/Q752994,Krafla,65.733333333333,-16.783333333333
http://www.wikidata.org/entity/Q1138683,Mount Mihara,34.7276,139.3988
http://www.wikidata.org/entity/Q1123218,Toba catastrophe theory,2.5666666666667,98.883333333333
http://www.wikidata.org/entity/Q805832,Baluan Island,-2.55,147.28333333333
http://www.wikidata.org/entity/Q895530,Taufstein,50.5172,9.23889
http://www.wikidata.org/entity/Q863350,Bilstein,50.4958,9.20295
http://www.wikidata.org/entity/Q1047509,Mount Bental,33.1281,35.7856
http://www.wikidata.org/entity/Q931485,Taapaca,-18.1,-69.5
http://www.wikidata.org/entity/Q999791,Buckle Island,-66.783333333333,163.25
http://www.wikidata.org/entity/Q1056001,Cerro Verde,13.82722222,-89.62333333
http://www.wikidata.org/entity/Q713836,Mount Iwate,39.8525,141.00111111
http://www.wikidata.org/entity/Q1143300,Cuicocha,0.30222222222222,-78.361666666667
http://www.wikidata.org/entity/Q718441,Mount Azuma-kofuji,37.73,140.25
http://www.wikidata.org/entity/Q943045,Tupungatito,-33.423888888889,-69.798055555556
http://www.wikidata.org/entity/Q858808,Osorno,-41.1,-72.493055555556
http://www.wikidata.org/entity/Q1055787,Cerro Azul,-35.653333333333,-70.760833333333
http://www.wikidata.org/entity/Q841189,El Chichón,17.36,-93.227777777778
http://www.wikidata.org/entity/Q809722,Bas Dong Nai,10.8,107.2
http://www.wikidata.org/entity/Q828701,Beru,8.9495,39.753
http://www.wikidata.org/entity/Q804039,Mount Bisoke,-1.5111111111111,29.448333333333
http://www.wikidata.org/entity/Q814113,Beerenberg,71.079666666667,-8.1558805555556
http://www.wikidata.org/entity/Q906358,Volcán Maipo,-34.163916666667,-69.832166666667
http://www.wikidata.org/entity/Q859376,Volcán de Fuego,14.474722222222,-90.880833333333
http://www.wikidata.org/entity/Q717453,Mount Tateshina,36.103611111111,138.295
http://www.wikidata.org/entity/Q1156943,Maderas,11.445833333333,-85.515
http://www.wikidata.org/entity/Q1067417,Mount Hakone,35.23,139.02388888889
http://www.wikidata.org/entity/Q1125445,Mount Tendürek,39.356,43.8741
http://www.wikidata.org/entity/Q1056001,Cerro Verde,13.827777777778,-89.625277777778
http://www.wikidata.org/entity/Q1028902,Camiguin de Babuyanes,18.83333333,121.86
http://www.wikidata.org/entity/Q937167,Rano Raraku,-27.18632,-109.43524
http://www.wikidata.org/entity/Q1020272,Búrfell,64.08694444,-19.82777778
http://www.wikidata.org/entity/Q1139121,Gareloi Volcano,51.786666666667,-178.80305555556
http://www.wikidata.org/entity/Q835770,Fremrinámar,65.429733,-16.645963
http://www.wikidata.org/entity/Q757314,Atlasov Island,50.859722222222,155.55944444444
http://www.wikidata.org/entity/Q1026302,Calbuco,-41.332777777778,-72.611111111111
http://www.wikidata.org/entity/Q913722,Bridgeman Island,-62.066666666667,-56.733333333333
http://www.wikidata.org/entity/Q1141849,Helgafell,63.4293,-20.2601
http://www.wikidata.org/entity/Q714605,Mount Bandai,37.600833333333,140.07222222222
http://www.wikidata.org/entity/Q1057979,Mount Tarumae,42.69,141.37805555556
http://www.wikidata.org/entity/Q896523,Großer Beerberg,50.659444444444,10.746111111111
http://www.wikidata.org/entity/Q928681,Mount Pico,38.467271,-28.40095
http://www.wikidata.org/entity/Q1049619,Izalco,13.813055555556,-89.633333333333
http://www.wikidata.org/entity/Q1053880,Central Island,3.5,36.05
http://www.wikidata.org/entity/Q851232,Mount Chiginagak,57.133611111111,-156.99138888889
http://www.wikidata.org/entity/Q989650,Mount Algidus,41.7267,12.7786
http://www.wikidata.org/entity/Q499164,Ascraeus Mons,11.92,255.92
http://www.wikidata.org/entity/Q210252,Klyuchevskaya Sopka,56.066666666667,160.63333333333
http://www.wikidata.org/entity/Q614531,Antsiferov Island,50.2,154.98333333333
http://www.wikidata.org/entity/Q288403,Sarychev Peak,48.090555555556,153.20138888889
http://www.wikidata.org/entity/Q385882,Fuss Peak,50.269722222222,155.2475
http://www.wikidata.org/entity/Q614531,Antsiferov Island,50.200555555556,154.98138888889
http://www.wikidata.org/entity/Q3117621,Uranius group of volcanoes,25.0,267.0
http://www.wikidata.org/entity/Q3156114,Yakeyama,45.0282,147.917
http://www.wikidata.org/entity/Q3367232,Tri Sestry,45.93,149.92
http://www.wikidata.org/entity/Q3156114,Yakeyama,45.0125,147.87361111111
http://www.wikidata.org/entity/Q3695505,Mount Hiuchigatake,36.95298,139.28716
http://www.wikidata.org/entity/Q3742394,Mount Shiga,36.69999,138.51273
http://www.wikidata.org/entity/Q3139453,Mount Tomuraushi,43.52722222,142.84861111
http://www.wikidata.org/entity/Q1866824,Ljósufjöll,64.87,-22.23
http://www.wikidata.org/entity/Q1544338,North Head,-36.827752777778,174.81205
http://www.wikidata.org/entity/Q1322666,Mount Sirung,-8.5166666666667,124.13333333333
http://www.wikidata.org/entity/Q1630952,Patomskiy crater,59.28472222,116.58944444
http://www.wikidata.org/entity/Q1639195,Mount Mikeno,-1.46276833,29.41681722
http://www.wikidata.org/entity/Q1474799,Torfajökull,63.8969996629,-18.9988738664
http://www.wikidata.org/entity/Q1324660,Tiger Island,13.265555555556,-87.637777777778
http://www.wikidata.org/entity/Q1769276,Nevado San Francisco,-26.918333333333,-68.263055555556
http://www.wikidata.org/entity/Q1535333,Marmolejo,-33.717129,-69.864514
http://www.wikidata.org/entity/Q1429816,Knüllköpfchen,50.916741666667,9.4222472222222
http://www.wikidata.org/entity/Q1436026,Q1436026,35.70111111,81.64972222
http://www.wikidata.org/entity/Q1411801,Horns of Hattin,32.799722222222,35.459722222222
http://www.wikidata.org/entity/Q1623902,Hoher Hagen,51.4752,9.76457
http://www.wikidata.org/entity/Q1648022,Vulcano,38.404,14.962
http://www.wikidata.org/entity/Q1623797,Hohenseelbachs-Kopf,50.75909722,7.98652778
http://www.wikidata.org/entity/Q1586649,Yate,-41.754722222222,-72.396388888889
http://www.wikidata.org/entity/Q1751428,Prometheus,-1.52,153.94
http://www.wikidata.org/entity/Q1320267,Pele,-18.71,255.28
http://www.wikidata.org/entity/Q1781665,Mont Marion-Dufresne,-46.416388888889,52.256944444444
http://www.wikidata.org/entity/Q1373738,Mount Suribachi,24.749030555556,141.28778333333
http://www.wikidata.org/entity/Q1894467,Marduk,-29.64,209.9
http://www.wikidata.org/entity/Q1673747,Mount Isarog,13.659166666667,123.37333333333
http://www.wikidata.org/entity/Q1641276,Quilotoa,-0.86119444444444,-78.897286111111
http://www.wikidata.org/entity/Q1347484,Merelava,-14.463936111111,168.03829166667
http://www.wikidata.org/entity/Q1575468,Volcán San Pedro,14.655833333333,-91.265833333333
http://www.wikidata.org/entity/Q1880965,Volcán Tolimán,14.6125,-91.189166666667
http://www.wikidata.org/entity/Q1790653,Cerro Bayo Complex,-25.416666666667,-68.583333333333
http://www.wikidata.org/entity/Q1945447,Mont Ross,-49.6,69.5
http://www.wikidata.org/entity/Q1330927,Puracé,2.3141666666667,-76.394166666667
http://www.wikidata.org/entity/Q1417843,Hanish Islands,13.75,42.75
http://www.wikidata.org/entity/Q1473902,Sapas Mons,8.5,188.3
http://www.wikidata.org/entity/Q1827535,Poike,-27.105322222222,-109.25505
http://www.wikidata.org/entity/Q1340711,Mehetia,-17.866666666667,-148.06666666667
http://www.wikidata.org/entity/Q1361324,Socorro Island,18.784444444444,-110.975
http://www.wikidata.org/entity/Q1413846,Hengill,64.085555555556,-21.313611111111
http://www.wikidata.org/entity/Q1800511,Laguna Aramuaca,13.428055555556,-88.105
http://www.wikidata.org/entity/Q1551586,Grímsnes,64.036666666667,-20.889444444444
http://www.wikidata.org/entity/Q1424979,Alcedo Volcano,-0.396583,-91.109104
http://www.wikidata.org/entity/Q1573932,Tau,-14.31778,-170.72806
http://www.wikidata.org/entity/Q1866824,Ljósufjöll,64.9143781024,-22.5859061356
http://www.wikidata.org/entity/Q1550157,Late,-18.8,-174.65
http://www.wikidata.org/entity/Q1327687,Volcán de Agua,14.465,-90.742777777778
http://www.wikidata.org/entity/Q1435038,Kverkfjöll,64.6611122478,-16.6654282588
http://www.wikidata.org/entity/Q1515751,Sete Cidades Massif,37.87,-25.78
http://www.wikidata.org/entity/Q1602444,Helgrindur,64.86666667,-23.3
http://www.wikidata.org/entity/Q1478849,Incahuasi,-27.033333333333,-68.3
http://www.wikidata.org/entity/Q1738398,Keluo,49.37,125.92
http://www.wikidata.org/entity/Q1790072,Mount Okmok,53.396944444444,-168.16611111111
http://www.wikidata.org/entity/Q1515751,Sete Cidades Massif,37.855194444444,-25.786166666667
http://www.wikidata.org/entity/Q1754806,Mount Ontake,35.892777777778,137.48027777778
http://www.wikidata.org/entity/Q1752870,Volcán Tacaná,15.1334,-92.1058
http://www.wikidata.org/entity/Q1575468,Volcán San Pedro,14.6559,-91.2659
http://www.wikidata.org/entity/Q1752422,Pukekawa,-36.857,174.775
http://www.wikidata.org/entity/Q1586649,Yate,-41.758888888889,-72.400277777778
http://www.wikidata.org/entity/Q1584353,Har Bnei Rasan,33.081944444444,35.833888888889
http://www.wikidata.org/entity/Q1783754,Kuwae,-16.829166666667,168.53611111111
http://www.wikidata.org/entity/Q1945447,Mont Ross,-49.6,69.5
http://www.wikidata.org/entity/Q1798916,Vetzberg,50.6204,8.61697
http://www.wikidata.org/entity/Q1798916,Vetzberg,50.6204,8.61697
http://www.wikidata.org/entity/Q1632346,Hrafnabjörg,64.272593,-20.921597
http://www.wikidata.org/entity/Q1790072,Mount Okmok,53.43,-168.13
http://www.wikidata.org/entity/Q1582571,Mount Parker,6.11416667,124.88972222
http://www.wikidata.org/entity/Q1628555,Hornopirén,-41.874444444444,-72.431388888889
http://www.wikidata.org/entity/Q1478289,Tupan Patera,-18.73,141.13
http://www.wikidata.org/entity/Q1869839,Lopevi,-16.833333333333,168.5
http://www.wikidata.org/entity/Q1672337,Menengai,-0.2,36.066666666667
http://www.wikidata.org/entity/Q1367704,Esjufjöll,64.2562657752,-16.5002254691
http://www.wikidata.org/entity/Q1422715,Rangitoto Island,-36.786742,174.860115
http://www.wikidata.org/entity/Q1545699,Grensdalur,64.04649,-21.190626
http://www.wikidata.org/entity/Q1377333,Mount Osore,41.279,141.12
http://www.wikidata.org/entity/Q1638935,Jabuka,43.091813888889,15.460098888889
http://www.wikidata.org/entity/Q1672472,Irazú Volcano,9.9791666666667,-83.8525
http://www.wikidata.org/entity/Q1552026,Tacora,-17.716666666667,-69.766666666667
http://www.wikidata.org/entity/Q1315012,Snæfellsjökull,64.809,-23.771
http://www.wikidata.org/entity/Q1637140,Hummelsberg,50.582067,7.324987
http://www.wikidata.org/entity/Q1427939,Fonualei,-18.024,-174.325
http://www.wikidata.org/entity/Q1435038,Kverkfjöll,64.65,-16.716666666667
http://www.wikidata.org/entity/Q1472613,Fuchskaute,50.6595,8.10262
http://www.wikidata.org/entity/Q1420308,Juriques,-22.845277777778,-67.824722222222
http://www.wikidata.org/entity/Q1872082,Ndete Napu,-8.72,121.78
http://www.wikidata.org/entity/Q1738211,Keli Mutubuurai,-8.77,121.82
http://www.wikidata.org/entity/Q1376373,Volcán Wolf,0.033333333333333,-91.333333333333
http://www.wikidata.org/entity/Q1869504,Longgang volcano group,42.33333333,126.5
http://www.wikidata.org/entity/Q1602444,Helgrindur,64.8876702451,-23.3284568109
http://www.wikidata.org/entity/Q1498870,Q1498870,50.5335,9.24294
http://www.wikidata.org/entity/Q1866824,Ljósufjöll,64.87,-22.23
http://www.wikidata.org/entity/Q1374413,Teneguía,28.47333333,-17.85166667
http://www.wikidata.org/entity/Q1739281,Kerlingarfjöll,64.65,-19.25
http://www.wikidata.org/entity/Q1738398,Keluo,49.38,125.90972222
http://www.wikidata.org/entity/Q1730511,Randecker Maar,48.5742,9.523
http://www.wikidata.org/entity/Q1315012,Snæfellsjökull,64.8071204861,-23.7762279203
http://www.wikidata.org/entity/Q1367704,Esjufjöll,64.25457,-16.537982
http://www.wikidata.org/entity/Q1535776,Morne Watt,15.307,-61.305
http://www.wikidata.org/entity/Q1474799,Torfajökull,63.881544444444,-19.009708333333
http://www.wikidata.org/entity/Q1324394,Cerro El Muerto,-27.0575,-68.483888888889
http://www.wikidata.org/entity/Q1787964,Krenitsyn Volcano,49.353055555556,154.70527777778
http://www.wikidata.org/entity/Q1896903,Nuevo Mundo volcano,-19.774166666667,-66.478333333333
http://www.wikidata.org/entity/Q1631727,Ofu-Olosega,-14.166666666667,-169.61666666667
http://www.wikidata.org/entity/Q1891390,San Félix Island,-26.2986,-80.0833
http://www.wikidata.org/entity/Q1420308,Juriques,-22.8475,-67.8392
http://www.wikidata.org/entity/Q2841341,Amaterasu Patera,38.1,306.5
http://www.wikidata.org/entity/Q2401434,Iktunup,58.083333333333,160.75
http://www.wikidata.org/entity/Q2401434,Iktunup,58.083333333333,160.75
http://www.wikidata.org/entity/Q2317058,Kaileney,57.8,160.66666666667
http://www.wikidata.org/entity/Q2256488,Fedotych,57.133333333333,160.4
http://www.wikidata.org/entity/Q2091943,Iettunup,58.4,161.06666666667
http://www.wikidata.org/entity/Q126589,Mount Butak,-7.92,112.45
http://www.wikidata.org/entity/Q248276,Corcovado Volcano,-43.193055555556,-72.792777777778
http://www.wikidata.org/entity/Q524954,Mount Taftan,28.6,61.133333333333
http://www.wikidata.org/entity/Q456619,Ambang,0.7575,124.41583333333
http://www.wikidata.org/entity/Q586852,Ushas Mons,-24.3,324.6
http://www.wikidata.org/entity/Q335699,Þríhnúkagígur,63.99833333,-21.69888889
http://www.wikidata.org/entity/Q457606,Q457606,-4.0652777777778,153.61944444444
http://www.wikidata.org/entity/Q389121,Lanín,-39.632777777778,-71.499722222222
http://www.wikidata.org/entity/Q457596,Ambitle,-4.0808333333333,153.62138888889
http://www.wikidata.org/entity/Q123157,Gunung Telomoyo,-7.37,110.4
http://www.wikidata.org/entity/Q422774,Robledo,-26.77,-67.72
http://www.wikidata.org/entity/Q43876,Mount Batur,-8.2372222222222,115.37694444444
http://www.wikidata.org/entity/Q126589,Mount Butak,-7.92,112.45
http://www.wikidata.org/entity/Q126589,Mount Butak,-7.92,112.45
http://www.wikidata.org/entity/Q373105,Arintica,-18.75,-69.05
http://www.wikidata.org/entity/Q183027,Mount Garibaldi,49.850555555556,-123.00472222222
http://www.wikidata.org/entity/Q609982,Antuco,-37.41,-71.351111111111
http://www.wikidata.org/entity/Q422807,Tipas,-27.2,-68.55
http://www.wikidata.org/entity/Q312936,Antofagasta de la Sierra,-25.968055555556,-67.535833333333
http://www.wikidata.org/entity/Q131230,Mauna Kea,19.820555555556,-155.46805555556
http://www.wikidata.org/entity/Q131230,Mauna Kea,19.820555555556,-155.46805555556
http://www.wikidata.org/entity/Q408217,Santiago Island,-0.25,-90.7
http://www.wikidata.org/entity/Q312770,Domuyo,-36.6397,-70.433
http://www.wikidata.org/entity/Q605355,Rábida Island,-0.413,-90.709
http://www.wikidata.org/entity/Q556594,Ankaratra,-19.349777777778,47.243341666667
http://www.wikidata.org/entity/Q204821,Île Saint-Paul,-38.73,77.522222222222
http://www.wikidata.org/entity/Q634065,Lastarria,-25.166666666667,-68.5
http://www.wikidata.org/entity/Q334728,Abu,34.5,131.6
http://www.wikidata.org/entity/Q335498,Þorbjörn,63.8658108209,-22.4366166804
http://www.wikidata.org/entity/Q375398,Irruputuncu,-20.733333333333,-68.566666666667
http://www.wikidata.org/entity/Q252081,"Guallatiri, Chile",-18.4167,-69.0917
http://www.wikidata.org/entity/Q337644,Acamarachi,-23.295833333333,-67.617222222222
http://www.wikidata.org/entity/Q568090,Puy Griou,45.0803,2.70611
http://www.wikidata.org/entity/Q255010,Parinacota,-18.165752777778,-69.141611111111
http://www.wikidata.org/entity/Q43876,Mount Batur,-8.2419444444444,115.375
http://www.wikidata.org/entity/Q163890,Prestahnúkur,64.6,-20.58
http://www.wikidata.org/entity/Q194215,Amsterdam Islands,-37.825833333333,77.554722222222
http://www.wikidata.org/entity/Q380300,Mount Overlord,-73.166666666667,164.6
http://www.wikidata.org/entity/Q620860,Mount Unzen,32.761342,130.298694
http://www.wikidata.org/entity/Q524216,Atsonupuri,44.807222222222,147.1275
http://www.wikidata.org/entity/Q392766,Mount Yasur,-19.533333333333,169.44166666667
http://www.wikidata.org/entity/Q279915,Mount Kusatsu-Shirane,36.645277777778,138.52833333333
http://www.wikidata.org/entity/Q383862,Mount Lurus,-7.7391666666667,113.58027777778
http://www.wikidata.org/entity/Q188982,Mount Erebus,-77.533333333333,167.28333333333
http://www.wikidata.org/entity/Q185847,Mount Wrangell,62.006944444444,-144.01583333333
http://www.wikidata.org/entity/Q202629,Lonquimay,-38.37894444,-71.59272222
http://www.wikidata.org/entity/Q214916,Llullaillaco,-24.719863,-68.536852
http://www.wikidata.org/entity/Q577482,Cerro Solo,-27.108333333333,-68.716666666667
http://www.wikidata.org/entity/Q422965,Tromen,-37.142,-70.03
http://www.wikidata.org/entity/Q312929,Viedma,-49.358333333333,-73.283333333333
http://www.wikidata.org/entity/Q150081,Mount Kaba,-3.52,102.62
http://www.wikidata.org/entity/Q575891,Momotombo,12.424312,-86.538577
http://www.wikidata.org/entity/Q457596,Ambitle,-4.0833333333333,153.95
http://www.wikidata.org/entity/Q207284,Mount Ruapehu,-39.281666666667,175.56861111111
http://www.wikidata.org/entity/Q578799,Malinche,19.23083333,-98.03194444
http://www.wikidata.org/entity/Q547770,Tyatya,44.35408,146.25099
http://www.wikidata.org/entity/Q607372,Puy de Dôme,45.772,2.9624
http://www.wikidata.org/entity/Q298119,Öræfajökull,64.025436111111,-16.642063888889
http://www.wikidata.org/entity/Q577700,Puyehue-Cordón Caulle,-40.590277777778,-72.117222222222
http://www.wikidata.org/entity/Q152380,Chaité,-42.832777777778,-72.645833333333
http://www.wikidata.org/entity/Q233351,Nevado del Ruiz,4.8925,-75.323611111111
http://www.wikidata.org/entity/Q137953,Ilopango,13.66666667,-89.05
http://www.wikidata.org/entity/Q137953,Ilopango,13.66666667,-89.05
http://www.wikidata.org/entity/Q280822,Brennisteinsalda,63.980833,-19.145833
http://www.wikidata.org/entity/Q315110,Hohe Acht,50.385833333333,7.0111111111111
http://www.wikidata.org/entity/Q639993,Ardoukoba,11.571944444444,42.495833333333
http://www.wikidata.org/entity/Q312866,Antofalla,-25.5625,-67.880833333333
http://www.wikidata.org/entity/Q692922,Novarupta,58.266666666667,-155.15666666667
http://www.wikidata.org/entity/Q538601,Terevaka,-27.084444444444,-109.37944444444
http://www.wikidata.org/entity/Q590920,Cerro Bravo,5.0891666666667,-75.292222222222
http://www.wikidata.org/entity/Q415251,Mount Akagi,36.560833333333,139.19361111111
http://www.wikidata.org/entity/Q214696,Mount Nyiragongo,-1.5166666666667,29.25
http://www.wikidata.org/entity/Q312862,Aracar,-24.29,-67.7833
http://www.wikidata.org/entity/Q419247,Akita-Komagatake,39.760833333333,140.80361111111
http://www.wikidata.org/entity/Q231620,Parícutin,19.493,-102.251
http://www.wikidata.org/entity/Q38954,Teide,28.272638888889,-16.643611111111
http://www.wikidata.org/entity/Q26546,Doña Juana,1.47075,-76.924902777778
http://www.wikidata.org/entity/Q166972,Zavodovski Island,-56.3,-27.58
http://www.wikidata.org/entity/Q235062,Galeras,1.2166666666667,-77.366666666667
http://www.wikidata.org/entity/Q181157,Popocatépetl,19.02222,-98.62778
http://www.wikidata.org/entity/Q279915,Mount Kusatsu-Shirane,36.643888888889,138.52777777778
http://www.wikidata.org/entity/Q190562,Mount Cameroon,4.2166666666667,9.1725
http://www.wikidata.org/entity/Q190562,Mount Cameroon,4.2166666666667,9.1725
http://www.wikidata.org/entity/Q587915,Makian,0.33333333333333,127.36666666667
http://www.wikidata.org/entity/Q227496,Zubair Group,15.05,42.16666667
http://www.wikidata.org/entity/Q691021,Cay,-45.0625,-72.98583333
http://www.wikidata.org/entity/Q513216,Kelut,-7.9333333333333,112.30555555556
http://www.wikidata.org/entity/Q521660,Sierra Nevada,-38.58333333,-71.58333333
http://www.wikidata.org/entity/Q368857,Bandama Caldera,28.033333,-15.455556
http://www.wikidata.org/entity/Q511443,Mallahle,13.277,41.655
http://www.wikidata.org/entity/Q607196,San Cristóbal Volcano,12.7,-87.0
http://www.wikidata.org/entity/Q312930,Copahue,-37.852222222222,-71.1675
http://www.wikidata.org/entity/Q547770,Tyatya,44.353888888889,146.25083333333
http://www.wikidata.org/entity/Q25736,Volcano Kropotkin,52.704077777778,99.000027777778
http://www.wikidata.org/entity/Q598893,Gunung Merbabu,-7.455,110.44
http://www.wikidata.org/entity/Q422765,Socompa,-24.393333333333,-68.256111111111
http://www.wikidata.org/entity/Q422737,Pomerape,-18.126275,-69.126719444444
http://www.wikidata.org/entity/Q42118,Pulosari,-6.342,105.975
http://www.wikidata.org/entity/Q335279,Þeistareykir,65.88,-16.84
http://www.wikidata.org/entity/Q335279,Þeistareykir,65.88,-16.84
http://www.wikidata.org/entity/Q4148786,Q4148786,58.05,160.78333333333
http://www.wikidata.org/entity/Q4253806,Q4253806,58.18,160.82
http://www.wikidata.org/entity/Q4224399,Q4224399,56.518611111111,161.39083333333
http://www.wikidata.org/entity/Q4217795,Q4217795,58.633333333333,160.83333333333
http://www.wikidata.org/entity/Q4210886,Q4210886,58.083333333333,160.75
http://www.wikidata.org/entity/Q4210886,Q4210886,58.083333333333,160.75
http://www.wikidata.org/entity/Q4179246,Severny,58.282777777778,160.87138888889
http://www.wikidata.org/entity/Q4218811,Q4218811,57.9,160.61666666667
http://www.wikidata.org/entity/Q4221257,Q4221257,56.516666666667,161.36666666667
http://www.wikidata.org/entity/Q4252361,Q4252361,58.416666666667,161.03333333333
http://www.wikidata.org/entity/Q4253681,Q4253681,58.583333333333,161.25
http://www.wikidata.org/entity/Q4088153,Bliznetsy,57.350833333333,161.37
http://www.wikidata.org/entity/Q4257781,Q4257781,58.033333333333,161.31666666667
http://www.wikidata.org/entity/Q3322058,Mount Rittmann,-73.45,165.5
http://www.wikidata.org/entity/Q3229393,Q3229393,45.8181,2.947
http://www.wikidata.org/entity/Q3411094,Puy de Montiroir,45.9702,2.92648
http://www.wikidata.org/entity/Q3006369,Crête de la Novara,-38.715,77.52
http://www.wikidata.org/entity/Q3217435,Gunung Muria,-6.61666667,110.88333333
http://www.wikidata.org/entity/Q3200888,Kyatwa,0.45,30.25
http://www.wikidata.org/entity/Q3200888,Kyatwa,0.45,30.25
http://www.wikidata.org/entity/Q3382428,Pic du Mascarin,-46.4381,51.7446
http://www.wikidata.org/entity/Q3530589,Tolhuaca,-38.31,-71.645
http://www.wikidata.org/entity/Q3290107,Mount Manengouba,5.022,9.842
http://www.wikidata.org/entity/Q3321807,Mont Denise,45.0584,3.85482
http://www.wikidata.org/entity/Q3046481,Mojanda,0.13,-78.27
http://www.wikidata.org/entity/Q3412754,Qualibou,13.838,-61.046
http://www.wikidata.org/entity/Q3114564,Grand Sarcoui,45.8145,2.9822
http://www.wikidata.org/entity/Q3042964,Masubi,-49.6,56.18
http://www.wikidata.org/entity/Q3411104,Puy des Goules,45.8095,2.98059
http://www.wikidata.org/entity/Q3006369,Crête de la Novara,-38.71341,77.52224
http://www.wikidata.org/entity/Q3411049,Putana,-22.557302,-67.852834
http://www.wikidata.org/entity/Q3377210,Petit Suchet,45.789786,2.961171
http://www.wikidata.org/entity/Q3155409,Isluga,-19.15,-68.833333333333
http://www.wikidata.org/entity/Q3138897,Hobicha,6.78,37.83
http://www.wikidata.org/entity/Q3466925,Q3466925,-13.8,167.46666666667
http://www.wikidata.org/entity/Q3466925,Q3466925,-13.8,167.46666666667
http://www.wikidata.org/entity/Q3471599,Q3471599,43.525,6.93722
http://www.wikidata.org/entity/Q3411093,Puy de Mercœur,45.7164,2.95583
http://www.wikidata.org/entity/Q3322001,Mount Oku,6.1997222222222,10.518888888889
http://www.wikidata.org/entity/Q3325375,Moua Pihaa,-18.325,-148.525
http://www.wikidata.org/entity/Q3077985,Fort Portal,0.7,30.25
http://www.wikidata.org/entity/Q3325375,Moua Pihaa,-18.32,-148.67
http://www.wikidata.org/entity/Q3322052,Q3322052,45.6681,3.0338
http://www.wikidata.org/entity/Q3411095,Puy de Lassolas,45.71166,2.95828
http://www.wikidata.org/entity/Q3412754,Qualibou,13.83,-61.05
http://www.wikidata.org/entity/Q3412754,Qualibou,13.83,-61.05
http://www.wikidata.org/entity/Q3197148,Kinich Ahau Patera,49.34,-310.2
http://www.wikidata.org/entity/Q3116465,Cerro Macá,-45.105833333333,-73.169166666667
http://www.wikidata.org/entity/Q3107788,Gish Bar Patera,16.18,90.26
http://www.wikidata.org/entity/Q3114585,Le Grand Suchet,45.7906,2.95528
http://www.wikidata.org/entity/Q3411102,Puy de la Vache,45.7054,2.96335
http://www.wikidata.org/entity/Q3276924,Mount Yake,36.22887,137.58824
http://www.wikidata.org/entity/Q3237604,Liado,9.57,40.28
http://www.wikidata.org/entity/Q3321904,Mount Karakuni,31.93416667,130.86166667
http://www.wikidata.org/entity/Q3090546,Fueguino,-54.95,-70.25
http://www.wikidata.org/entity/Q3087410,Linzor,-22.15,-67.96667
http://www.wikidata.org/entity/Q3033707,Dofan,9.34444444,40.13194444
http://www.wikidata.org/entity/Q3411078,Puy Pariou,45.796824,2.971484
http://www.wikidata.org/entity/Q3138897,Hobicha,6.78,37.83
http://www.wikidata.org/entity/Q3411123,Q3411123,45.8278,2.955
http://www.wikidata.org/entity/Q3192416,Kami-Nari Patera,-8.7,-235.08
http://www.wikidata.org/entity/Q3195608,Ketildyngja,65.43076,-16.64561
http://www.wikidata.org/entity/Q3132346,Mocho-Choshuenco,-39.909722222222,-72.0375
http://www.wikidata.org/entity/Q3125067,Sumaco,-0.5404,-77.6266
http://www.wikidata.org/entity/Q3322136,Q3322136,-16.828,-151.452
http://www.wikidata.org/entity/Q3471590,San Pedro de Tarara,-35.9948665,-70.8863297
http://www.wikidata.org/entity/Q3065113,Suchitan,14.333333333333,-89.78
http://www.wikidata.org/entity/Q3125067,Sumaco,-0.53805556,-77.62583333
http://www.wikidata.org/entity/Q3087410,Linzor,-22.15,-67.966666666667
http://www.wikidata.org/entity/Q3322217,Mont de la Dives,-37.838104692865,77.55264456436
http://www.wikidata.org/entity/Q3372707,Platanar,10.3000174,-84.3660879
http://www.wikidata.org/entity/Q3707308,Bud Dajo,6.01333333,121.05666667
http://www.wikidata.org/entity/Q3391954,Thor,39.15,133.14
http://www.wikidata.org/entity/Q2974420,Citerne,16.0334,-61.657
http://www.wikidata.org/entity/Q3322217,Mont de la Dives,-37.848,77.55
http://www.wikidata.org/entity/Q3100052,Gedamsa,8.35554,39.18034
http://www.wikidata.org/entity/Q3273698,Q3273698,45.7766,3.08175
http://www.wikidata.org/entity/Q3411089,Puy de Gravenoire,45.75153,3.04974
http://www.wikidata.org/entity/Q3116485,Tahual,14.43,-89.9
http://www.wikidata.org/entity/Q3411096,Puy de Paugnat,45.8803,2.9778
http://www.wikidata.org/entity/Q3116451,Pular,-24.2005,-68.0665
http://www.wikidata.org/entity/Q2956713,Santa Isabel,4.81666667,-75.36666667
http://www.wikidata.org/entity/Q3300188,Mauna Ulu,19.3668,-155.201
http://www.wikidata.org/entity/Q3411091,Puy de Louchadière,45.8531,2.95083
http://www.wikidata.org/entity/Q3286723,Manua Patera,35.78,-321.73
http://www.wikidata.org/entity/Q3332046,Mælifellshnjúkur,65.400014,-19.366149
http://www.wikidata.org/entity/Q3290107,Mount Manengouba,5.03,9.83
http://www.wikidata.org/entity/Q3066185,Volcán Huequi,-42.376666666667,-72.578055555556
http://www.wikidata.org/entity/Q3133588,Mount Norikura,36.10638889,137.55361111
http://www.wikidata.org/entity/Q3100052,Gedamsa,8.35,39.183333333333
http://www.wikidata.org/entity/Q3411087,Puy de Côme,45.7965,2.94332
http://www.wikidata.org/entity/Q3321906,Mount Kupe,4.801,9.707
http://www.wikidata.org/entity/Q3322034,Q3322034,-45.952,50.432
http://www.wikidata.org/entity/Q3322220,Q3322220,-46.4195,50.402
http://www.wikidata.org/entity/Q3198640,Kone,8.8,39.692
http://www.wikidata.org/entity/Q3412754,Qualibou,13.838,-61.046
http://www.wikidata.org/entity/Q3411101,Puy de la Bannière,45.8789,3.03361
http://www.wikidata.org/entity/Q3066185,Volcán Huequi,-42.36333,-72.57472
http://www.wikidata.org/entity/Q2964415,Chonco,12.703018,-87.04339
http://www.wikidata.org/entity/Q3332046,Mælifellshnjúkur,65.3896,-19.3525
http://www.wikidata.org/entity/Q3237604,Liado,9.57,40.28
http://www.wikidata.org/entity/Q3437336,Roc d'Hozières,45.1144,2.64361
http://www.wikidata.org/entity/Q3322217,Mont de la Dives,-37.849444444444,77.549444444444
http://www.wikidata.org/entity/Q3411100,Puy de la Nugère,45.8601,2.9837
http://www.wikidata.org/entity/Q3382428,Pic du Mascarin,-46.4378,51.7457
http://www.wikidata.org/entity/Q3382428,Pic du Mascarin,-46.4378,51.7457
http://www.wikidata.org/entity/Q3327565,Pico do Cabugi,-5.70611111,-36.32083333
http://www.wikidata.org/entity/Q3116456,Tinguiririca Volcano,-34.813611111111,-70.351944444444
http://www.wikidata.org/entity/Q3695499,Mount Kirigamine,36.1,138.167
http://www.wikidata.org/entity/Q3042741,Mount Belinda,-58.43333333,-26.33333333
http://www.wikidata.org/entity/Q3411084,Q3411084,45.9589,2.97427
http://www.wikidata.org/entity/Q3742394,Mount Shiga,36.699427777778,138.510725
http://www.wikidata.org/entity/Q3321906,Mount Kupe,4.80944444,9.71222222
http://www.wikidata.org/entity/Q2573663,Sangeang Api,-8.18,119.05
http://www.wikidata.org/entity/Q2656048,Pico Birigoyo,28.605,-17.841111111111
http://www.wikidata.org/entity/Q2861446,Q2861446,-24.416944,-67.9875
http://www.wikidata.org/entity/Q2604945,Isolation Point,-78.1833,167.5
http://www.wikidata.org/entity/Q2746400,May-Ya-Moto,-0.93333333333333,29.333333333333
http://www.wikidata.org/entity/Q2080283,Goryashchaya Sopka,46.831666666667,151.75138888889
http://www.wikidata.org/entity/Q2621082,Khangar,54.75,157.36666666667
http://www.wikidata.org/entity/Q2065108,Mount Tehama,40.445436111111,-121.55942777778
http://www.wikidata.org/entity/Q2661998,Tecuamburro,14.156111111111,-90.406944444444
http://www.wikidata.org/entity/Q2144882,Q2144882,-10.121667,120.225
http://www.wikidata.org/entity/Q2433163,Wai Sano,-8.71666667,120.0166667
http://www.wikidata.org/entity/Q2882838,Banne d'Ordanche,45.6108,2.77278
http://www.wikidata.org/entity/Q2186376,Sinarka,48.873888888889,154.18083333333
http://www.wikidata.org/entity/Q2072520,Zavaritski Caldera,46.916666666667,151.95
http://www.wikidata.org/entity/Q2844426,Amphitrites Patera,-58.7,60.87
http://www.wikidata.org/entity/Q2264951,Bolshoi Payalpan,55.833333333333,157.75
http://www.wikidata.org/entity/Q2651559,Mendeleyeva,43.976388888889,145.73611111111
http://www.wikidata.org/entity/Q2154758,Mount Rishiri,45.17865,141.24192222222
http://www.wikidata.org/entity/Q2118760,Purchas Hill,-36.8871,174.847
http://www.wikidata.org/entity/Q2788686,Montaña Quemada,28.62497,-17.84042
http://www.wikidata.org/entity/Q2901375,Poco Ranaka,-8.63664,120.53095
http://www.wikidata.org/entity/Q2282091,Chikurachki,50.321666666667,155.46166666667
http://www.wikidata.org/entity/Q2639098,Mount Haku,36.1,136.5
http://www.wikidata.org/entity/Q2854860,Peretolchin,52.719166666667,99.034722222222
http://www.wikidata.org/entity/Q2638551,Albert Park Volcano,-36.848585,174.767263
http://www.wikidata.org/entity/Q2643122,Karaha Crater,-7.12,108.08
http://www.wikidata.org/entity/Q2601582,Smirnov,44.422222222222,146.12666666667
http://www.wikidata.org/entity/Q2352524,Wolo Inelika,-8.73,120.98
http://www.wikidata.org/entity/Q2073703,Schmidt,54.92,160.63
http://www.wikidata.org/entity/Q2669883,Tunka valley,51.5,102.5
http://www.wikidata.org/entity/Q2669883,Tunka valley,51.5,102.5
http://www.wikidata.org/entity/Q2622322,Los Patos,-27.301111111111,-68.808888888889
http://www.wikidata.org/entity/Q2934098,Callaqui,-37.916666666667,-71.45
http://www.wikidata.org/entity/Q2729027,Bolshaya Ipelka,52.663333333333,156.9725
http://www.wikidata.org/entity/Q2933737,Q2933737,-37.85,-71.0
http://www.wikidata.org/entity/Q2091698,Volcán Tenorio,10.672777777778,-85.015
http://www.wikidata.org/entity/Q2360498,El Totumo,10.74447222,-75.24140278
http://www.wikidata.org/entity/Q2564984,Kuntomintar,48.758055555556,154.01444444444
http://www.wikidata.org/entity/Q2124774,Ra Patera,-8.66,35.3
http://www.wikidata.org/entity/Q2868734,Ata volcano,-27.181944444444,-68.576111111111
http://www.wikidata.org/entity/Q2108921,Sotará,2.1080555555556,-76.591944444444
http://www.wikidata.org/entity/Q2301875,Água de Pau,37.760333333333,-25.491558333333
http://www.wikidata.org/entity/Q2905170,mount Avital,33.115,35.788888888889
http://www.wikidata.org/entity/Q2672141,Volcán Santo Tomás,14.710277777778,-91.478611111111
http://www.wikidata.org/entity/Q2535356,volcanoes of the Leizhou Peninsula,20.5,110.16666667
http://www.wikidata.org/entity/Q2664586,Golovnin,43.843055555556,145.50555555556
http://www.wikidata.org/entity/Q2229474,Kudriavy volcano,45.38494,148.81647
http://www.wikidata.org/entity/Q2742687,San Pedro,-21.8875,-68.39166667
http://www.wikidata.org/entity/Q2904267,Mount Teon,32.959444444444,35.863888888889
http://www.wikidata.org/entity/Q2904267,Mount Teon,32.959444444444,35.863888888889
http://www.wikidata.org/entity/Q2229474,Kudriavy volcano,45.383888888889,148.81305555556
http://www.wikidata.org/entity/Q2425296,Udokan Plateau,56.28,117.77
http://www.wikidata.org/entity/Q2946773,Cerro Singüil,14.053,-89.6315
http://www.wikidata.org/entity/Q2483640,Iliwerung,-8.5322222222222,123.57333333333
http://www.wikidata.org/entity/Q2655929,Los Atlixcos,19.808888888889,-96.526388888889
http://www.wikidata.org/entity/Q2655929,Los Atlixcos,19.808888888889,-96.526388888889
http://www.wikidata.org/entity/Q2549314,Iyang-Argapura,-7.97,113.57
http://www.wikidata.org/entity/Q2045381,Q2045381,50.3,155.45
http://www.wikidata.org/entity/Q2666739,Chirip,45.377222222222,147.91222222222
http://www.wikidata.org/entity/Q2530684,Wright Seamounts,-31.85,-179.183333
http://www.wikidata.org/entity/Q2160928,Rodderberg,50.6425,7.1983333333333
http://www.wikidata.org/entity/Q2946783,Cerro Tujle,-23.8354,-67.9515
http://www.wikidata.org/entity/Q2868734,Ata volcano,-27.1819,-68.5762
http://www.wikidata.org/entity/Q2332726,Tshibinda,-2.3166666666667,28.75
http://www.wikidata.org/entity/Q2105492,Mount Sukaria,-8.792,121.77
http://www.wikidata.org/entity/Q2181214,Kamojang,-7.125,107.8
http://www.wikidata.org/entity/Q2396057,Leroboleng,-8.358,122.842
http://www.wikidata.org/entity/Q2467823,San José,-33.781666666667,-69.897222222222
http://www.wikidata.org/entity/Q2593019,Ilyinsky,51.49,157.2
http://www.wikidata.org/entity/Q2150879,Azhdahak,40.225761111111,44.947255555556
http://www.wikidata.org/entity/Q2553917,Michinmahuida,-42.799166666667,-72.445833333333
http://www.wikidata.org/entity/Q2340739,Gunung Dukono,1.699505,127.878105
http://www.wikidata.org/entity/Q2672570,Volcán Darwin,-0.18333333333333,-91.283333333333
http://www.wikidata.org/entity/Q2740999,Talamau Mount,0.079166666666667,99.983333333333
http://www.wikidata.org/entity/Q2740999,Talamau Mount,0.079166666666667,99.983333333333
http://www.wikidata.org/entity/Q2375482,Brava,14.85,-24.716666666667
http://www.wikidata.org/entity/Q2375482,Brava,14.85,-24.716666666667
http://www.wikidata.org/entity/Q2454241,Tristan da Cunha,-37.11111111,-12.2875
http://www.wikidata.org/entity/Q2786660,Malang Plain,-8.02,112.68
http://www.wikidata.org/entity/Q2895004,Salín,-24.3317,-68.0639
http://www.wikidata.org/entity/Q2903912,Q2903912,33.211111111111,35.788888888889
http://www.wikidata.org/entity/Q2092383,Pico viejo,28.263888888889,-16.664722222222
http://www.wikidata.org/entity/Q2854575,Wayang-Windu,-7.208,107.63
http://www.wikidata.org/entity/Q2827394,Ah Peku Patera,10.3,107.0
http://www.wikidata.org/entity/Q2328794,Poco Leok,-8.68,120.48
http://www.wikidata.org/entity/Q2827325,Aguas Calientes,-23.368333333333,-67.685
http://www.wikidata.org/entity/Q2332726,Tshibinda,-2.3083,28.7442
http://www.wikidata.org/entity/Q2601149,Demon,45.5014,148.8603
http://www.wikidata.org/entity/Q2633479,Grábrók,64.7817,-21.56226
http://www.wikidata.org/entity/Q2903945,Hermonit Mountain,33.185277777778,35.793611111111
http://www.wikidata.org/entity/Q2080294,Prevo Peak,47.011111111111,152.115
http://www.wikidata.org/entity/Q2594712,Wudalianchi,48.71666667,126.12
http://www.wikidata.org/entity/Q2735753,Gunung Guntur,-7.1433333333333,107.83972222222
http://www.wikidata.org/entity/Q2162588,Mount Sempu,1.13,124.758
http://www.wikidata.org/entity/Q2943430,Cayutue-La Vigueria,-41.25,-72.27
http://www.wikidata.org/entity/Q2381562,Riang Kotang,-8.3,122.892
http://www.wikidata.org/entity/Q2595055,Surveyors volcano,56.333888888889,158.68
http://www.wikidata.org/entity/Q2656048,Pico Birigoyo,28.6049295,-17.8408747
http://www.wikidata.org/entity/Q2087307,Lvinaya Past,44.608333333333,146.99388888889
http://www.wikidata.org/entity/Q2530709,Volcán Azul,12.55305556,-83.95888889
http://www.wikidata.org/entity/Q4089188,Bogdan Khmelnitsky,45.37698,147.91324
http://www.wikidata.org/entity/Q4088419,Black Rock Desert volcanic field,38.966666666667,-112.5
http://www.wikidata.org/entity/Q4209210,Q4209210,57.05,159.9
http://www.wikidata.org/entity/Q4247298,Q4247298,57.05,159.9
http://www.wikidata.org/entity/Q4209210,Q4209210,57.05,159.9
http://www.wikidata.org/entity/Q4247298,Q4247298,57.05,159.9
http://www.wikidata.org/entity/Q4077870,Baranovsky Volcano (Primorsky Krai),43.652975,131.91947222222
http://www.wikidata.org/entity/Q4240420,Q4240420,56.066666666667,160.5
http://www.wikidata.org/entity/Q4250394,Q4250394,56.133333333333,158.45
http://www.wikidata.org/entity/Q4152986,Gutanasar,40.36793,44.68386
http://www.wikidata.org/entity/Q4071223,Q4071223,-7.9517972222222,-14.342336111111
http://www.wikidata.org/entity/Q4088405,Blup Blup,-3.5066666666667,144.605
http://www.wikidata.org/entity/Q4075651,Bayonnaise Rocks,31.883333333333,139.91666666667
http://www.wikidata.org/entity/Q4075651,Bayonnaise Rocks,31.883333333333,139.91666666667
http://www.wikidata.org/entity/Q4088366,Blue Lake Crater,44.411388888889,-121.77388888889
http://www.wikidata.org/entity/Q4128310,Berg Volcano,46.116666666667,150.15
http://www.wikidata.org/entity/Q4093102,Q4093102,55.833333333333,158.33333333333
http://www.wikidata.org/entity/Q4093104,Q4093104,55.833333333333,158.33333333333
http://www.wikidata.org/entity/Q4093102,Q4093102,55.833333333333,158.33333333333
http://www.wikidata.org/entity/Q4093104,Q4093104,55.833333333333,158.33333333333
http://www.wikidata.org/entity/Q4086958,Bir Borhut,15.55,50.633333333333
http://www.wikidata.org/entity/Q4228245,Q4228245,46.060277777778,150.06611111111
http://www.wikidata.org/entity/Q4100074,Bus-Obo,47.12,109.08
http://www.wikidata.org/entity/Q4071824,Q4071824,19.6925,145.40361111111
http://www.wikidata.org/entity/Q4075236,Buzzard Creek,64.062,-148.433
http://www.wikidata.org/entity/Q4252438,Q4252438,-39.0725,-70.299722222222
http://www.wikidata.org/entity/Q4155060,Dariganga Volcanic Field,45.754,114.279
http://www.wikidata.org/entity/Q4220812,Kinenin,53.255555555556,158.83333333333
http://www.wikidata.org/entity/Q4220812,Kinenin,53.255555555556,158.83333333333
http://www.wikidata.org/entity/Q4077868,Q4077868,60.916666666667,101.93333333333
http://www.wikidata.org/entity/Q4209209,Q4209209,56.933333333333,159.75
http://www.wikidata.org/entity/Q4089140,Bogachevsky,54.973214,160.707136
http://www.wikidata.org/entity/Q4241904,Q4241904,56.566666666667,158.98333333333
http://www.wikidata.org/entity/Q4214289,Q4214289,54.69,89.654
http://www.wikidata.org/entity/Q4108292,Q4108292,52.816666666667,158.15
http://www.wikidata.org/entity/Q4108292,Q4108292,52.816666666667,158.15
http://www.wikidata.org/entity/Q4076242,Balagan-Tas,65.958258333333,145.89305
http://www.wikidata.org/entity/Q4175840,Emperor of China,-6.61666667,124.21666667
http://www.wikidata.org/entity/Q4099160,Q4099160,56.366666666667,158.88333333333
http://www.wikidata.org/entity/Q4095705,Brothers Seamount,-34.882167,179.0675
http://www.wikidata.org/entity/Q4089752,Q4089752,51.91,-177.43833333333
http://www.wikidata.org/entity/Q4089752,Q4089752,51.91,-177.43833333333
http://www.wikidata.org/entity/Q4114152,Q4114152,56.15,160.65
http://www.wikidata.org/entity/Q4216914,Q4216914,56.895,160.02444444444
http://www.wikidata.org/entity/Q4253468,Lamanon,48.7,142.1
http://www.wikidata.org/entity/Q4128312,Q4128312,47.343055555556,152.47888888889
http://www.wikidata.org/entity/Q4070254,Arteni,40.375844444444,43.784880555556
http://www.wikidata.org/entity/Q4110079,Q4110079,56.566666666667,158.8
http://www.wikidata.org/entity/Q4092933,Q4092933,56.9,159.43333333333
http://www.wikidata.org/entity/Q4155855,Q4155855,54.05,159.43333333333
http://www.wikidata.org/entity/Q4093436,Borawli,11.633333333333,41.45
http://www.wikidata.org/entity/Q4092497,Q4092497,56.466666666667,157.8
http://www.wikidata.org/entity/Q4128315,Q4128315,52.906054,158.5479473
http://www.wikidata.org/entity/Q4231222,Q4231222,55.083333333333,160.55
http://www.wikidata.org/entity/Q4128309,Q4128309,50.200277777778,154.97527777778
http://www.wikidata.org/entity/Q4237106,Koshkulak,54.45,89.685
http://www.wikidata.org/entity/Q4100074,Bus-Obo,47.116666666667,109.08333333333
http://www.wikidata.org/entity/Q4087566,Biu Plateau,10.55,12.1333333
http://www.wikidata.org/entity/Q4128316,Vulkan Snou,46.510833333333,150.86861111111
http://www.wikidata.org/entity/Q4090272,Q4090272,11.25,41.833333333333
http://www.wikidata.org/entity/Q4232339,Q4232339,56.466666666667,158.83333333333
http://www.wikidata.org/entity/Q4126603,Q4126603,54.333333333333,159.88333333333
http://www.wikidata.org/entity/Q4255259,Q4255259,55.433333333333,157.08333333333
http://www.wikidata.org/entity/Q4128319,Vulkan Chernoga,46.521944444444,150.86638888889
http://www.wikidata.org/entity/Q4177455,Coronado (volcano),29.083333333333,-113.51333333333
http://www.wikidata.org/entity/Q4142403,Q4142403,45.334962,37.27775
http://www.wikidata.org/entity/Q4091448,Q4091448,56.95,158.23333333333
http://www.wikidata.org/entity/Q4182084,Q4182084,52.339325,157.90457777778
http://www.wikidata.org/entity/Q4098205,Q4098205,56.383333333333,158.68333333333
http://www.wikidata.org/entity/Q4128318,Q4128318,52.551827777778,157.73291666667
http://www.wikidata.org/entity/Q4155060,Dariganga Volcanic Field,45.33333,114.0
http://www.wikidata.org/entity/Q4091885,Bolshe-Bannaya,52.9,157.76666666667
http://www.wikidata.org/entity/Q4089661,Bogoria,0.25,36.08
http://www.wikidata.org/entity/Q4225045,Q4225045,56.283333333333,158.48333333333
http://www.wikidata.org/entity/Q4077147,Q4077147,-3.6130555555556,144.81916666667
http://www.wikidata.org/entity/Q4089188,Bogdan Khmelnitsky,45.336944444444,147.92027777778
http://www.wikidata.org/entity/Q4083643,Q4083643,55.316666666667,-131.05
http://www.wikidata.org/entity/Q4180518,Methana Volcano,37.615,23.336
http://www.wikidata.org/entity/Q4220676,Q4220676,55.266666666667,158.18333333333
http://www.wikidata.org/entity/Q4255261,Q4255261,55.466666666667,157.35
http://www.wikidata.org/entity/Q4176881,Itasy Volcanic Field,-19.066666666667,46.783333333333
http://www.wikidata.org/entity/Q4179256,Mount Sanbe,35.13205,132.626611
http://www.wikidata.org/entity/Q4109966,Q4109966,9.8333333333333,109.05
http://www.wikidata.org/entity/Q4105871,Veer,56.7,159.65
http://www.wikidata.org/entity/Q4182925,Zavaritsky,56.7,159.65
http://www.wikidata.org/entity/Q4105871,Veer,56.7,159.65
http://www.wikidata.org/entity/Q4182925,Zavaritsky,56.7,159.65
http://www.wikidata.org/entity/Q4105871,Veer,56.7,159.65
http://www.wikidata.org/entity/Q4182925,Zavaritsky,56.7,159.65
http://www.wikidata.org/entity/Q4087566,Biu Plateau,10.75,12.0
http://www.wikidata.org/entity/Q4186342,Zaoziornyj,56.883333333333,159.95
http://www.wikidata.org/entity/Q4128314,Severgin Volcano,49.118055555556,154.51944444444
http://www.wikidata.org/entity/Q4180583,Q4180583,52.616666666667,158.25
http://www.wikidata.org/entity/Q4205381,Q4205381,55.233333333333,160.6
http://www.wikidata.org/entity/Q4186559,Q4186559,54.333333333333,159.86666666667
http://www.wikidata.org/entity/Q4069234,Arik volcano,53.366666666667,158.66666666667
http://www.wikidata.org/entity/Q4099736,Q4099736,54.333333333333,159.96666666667
http://www.wikidata.org/entity/Q4090471,Q4090471,-3.9944444444444,144.96333333333
http://www.wikidata.org/entity/Q4075861,Q4075861,-6.15,155.35
http://www.wikidata.org/entity/Q4177455,Coronado (volcano),29.08886,-113.51524
http://www.wikidata.org/entity/Q4494785,Q4494785,58.05,161.63333333333
http://www.wikidata.org/entity/Q4457294,Q4457294,58.284363888889,160.59684166667
http://www.wikidata.org/entity/Q4459093,Q4459093,58.263783333333,160.73477222222
http://www.wikidata.org/entity/Q31449963,Cerro El Puerto,19.47546,-102.03624
http://www.wikidata.org/entity/Q31450147,Volcán El Caballito,19.089166666667,-99.1825
http://www.wikidata.org/entity/Q31445644,Volcán Sapicho,19.495833333333,-102.24833333333
http://www.wikidata.org/entity/Q31449996,Cerro Escalerilla,18.783611111111,-103.70555555556
http://www.wikidata.org/entity/Q31450225,Volcán Tuxtepec,19.12153,-99.10068
http://www.wikidata.org/entity/Q31450288,Volcán Malacatepetl,19.164444444444,-99.256388888889
http://www.wikidata.org/entity/Q31450261,Volcán Ocusacayo,19.1433,-99.0691
http://www.wikidata.org/entity/Q31449920,Cerro El Colorado,19.42476,-102.16873
http://www.wikidata.org/entity/Q31449939,Cerro El Jabalí,19.45045,-102.11325
http://www.wikidata.org/entity/Q31449983,Cerro Estiladero,19.444444444444,-102.1975
http://www.wikidata.org/entity/Q31445638,Volcán El Tezontle,24.130555555556,-104.08444444444
http://www.wikidata.org/entity/Q31449969,Cerro El Cajete,19.47328,-102.04223
http://www.wikidata.org/entity/Q31450140,Volcán Man Nal,19.2232,-99.2199
http://www.wikidata.org/entity/Q31449952,Cerro Tumbiscatillo,19.464722222222,-102.17277777778
http://www.wikidata.org/entity/Q31444071,Camiguin Volcano,9.2152777777778,124.64666666667
http://www.wikidata.org/entity/Q31445536,Kalem,50.18587,6.61782
http://www.wikidata.org/entity/Q31450001,Sopka Krasnaya,44.150277777778,132.95916666667
http://www.wikidata.org/entity/Q31449907,Cerro Ciricuti,19.435833333333,-102.17694444444
http://www.wikidata.org/entity/Q31449913,Cerro El Rosario,19.438611111111,-102.15583333333
http://www.wikidata.org/entity/Q31449891,Cerro El Cohetero,19.27184,-102.3327
http://www.wikidata.org/entity/Q31444368,Mount Carling,9.2161111111111,124.66916666667
http://www.wikidata.org/entity/Q31445650,Cerro La Perita,19.45579,-102.20503
http://www.wikidata.org/entity/Q31450343,Cerro Volado,17.403611111111,-97.607222222222
http://www.wikidata.org/entity/Q31445656,Cerro El Llahuacuaro,19.426111111111,-102.24
http://www.wikidata.org/entity/Q31450042,Volcán Cuautl,19.165833333333,-99.421388888889
http://www.wikidata.org/entity/Q31450087,Volcán Tomasquillo,19.169722222222,-99.388888888889
http://www.wikidata.org/entity/Q31445676,Cerro El Chupadero,19.31014,-102.29017
http://www.wikidata.org/entity/Q31449916,Vulkan Taketomi,50.845,155.6744
http://www.wikidata.org/entity/Q31450208,Volcán Tulmiac,19.135277777778,-99.116666666667
http://www.wikidata.org/entity/Q31449932,Cerro Las Varas,19.463888888889,-102.12916666667
http://www.wikidata.org/entity/Q31449901,Cerro Jicalmi,19.3925,-102.07722222222
http://www.wikidata.org/entity/Q31445586,Gran Cratere,38.40417,14.9657
http://www.wikidata.org/entity/Q31445600,Mount Stromboli,38.79,15.21
http://www.wikidata.org/entity/Q31450023,Volcán Tuxtepec,19.09894,-99.45736
http://www.wikidata.org/entity/Q31450082,Volcán La Silva,19.180555555556,-99.375833333333
http://www.wikidata.org/entity/Q31450190,Volcán Toxtepec,19.16211,-99.15032
http://www.wikidata.org/entity/Q31450268,Volcán Tioca,19.20447,-99.09374
http://www.wikidata.org/entity/Q31445503,Campana,9.2083333333333,124.70833333333
http://www.wikidata.org/entity/Q31449994,Sopka Ryadaya,44.331,132.8773
http://www.wikidata.org/entity/Q31450116,Volcán Texoxocol,19.152777777778,-99.230833333333
http://www.wikidata.org/entity/Q31450202,Volcán Zompole,19.204444444444,-99.115555555556
http://www.wikidata.org/entity/Q31450047,Volcánes Cuates,19.193611111111,-99.443333333333
http://www.wikidata.org/entity/Q31445627,Volcán El Molcajete,21.4766,-104.7818
http://www.wikidata.org/entity/Q31450075,Volcán Teconto,19.1966,-99.37651
http://www.wikidata.org/entity/Q31450154,Volcán Manteca,19.089722222222,-99.177777777778
http://www.wikidata.org/entity/Q31444321,Minokol,9.2166666666667,124.65
http://www.wikidata.org/entity/Q31449946,Cerro Sapién,19.45112,-102.10263
http://www.wikidata.org/entity/Q31445664,Cerro La Alberca,19.364444444444,-102.29694444444
http://www.wikidata.org/entity/Q31450170,Volcán El Hoyo,19.08969,-99.1688
http://www.wikidata.org/entity/Q31450092,Volcán Santa de Mezapa,19.165555555556,-99.447222222222
http://www.wikidata.org/entity/Q31450236,Volcán La Comalera,19.1092,-99.1074
http://www.wikidata.org/entity/Q31450005,Cerro Mancira,18.5331,-103.5226
http://www.wikidata.org/entity/Q31450007,Sopka Mayak,44.117222222222,132.97555555556
http://www.wikidata.org/entity/Q31450012,Volcán Tepetzingo,19.0596,-99.4419
http://www.wikidata.org/entity/Q31450134,Volcán Cuatzontle,19.24089,-99.21235
http://www.wikidata.org/entity/Q31450327,Volcán El Molcajete,18.92846,-99.9465
http://www.wikidata.org/entity/Q31450069,Volcán Tehualtepec,19.2186,-99.4001
http://www.wikidata.org/entity/Q31450128,Volcán Xictle,19.2475,-99.221944444444
http://www.wikidata.org/entity/Q31449958,Cerro Pario,19.470277777778,-102.18388888889
http://www.wikidata.org/entity/Q31443965,Hibochiboc Volcano,9.2041666666667,124.67027777778
http://www.wikidata.org/entity/Q31450183,Volcán Tetzacoatl,19.138888888889,-99.128055555556
http://www.wikidata.org/entity/Q31450106,Volcán Tezontle,19.0554,-99.2607
http://www.wikidata.org/entity/Q31445632,Volcán El Tepalcate,24.050277777778,-104.29083333333
http://www.wikidata.org/entity/Q31450295,Volcán El Jorullo,18.972,-101.7169
http://www.wikidata.org/entity/Q31450335,Cerro Itzhuitz,16.48941,-92.40866
http://www.wikidata.org/entity/Q31450196,Volcán Yololica,19.2203,-99.1802
http://www.wikidata.org/entity/Q31450280,Volcán San Miguel,19.1625,-99.004444444444
http://www.wikidata.org/entity/Q31449987,Sopka Obor,47.415555555556,134.79472222222
http://www.wikidata.org/entity/Q31450026,Sopka Ryzhaya,44.141111111111,132.82638888889
http://www.wikidata.org/entity/Q31449990,Cerro La Batea,19.129722222222,-102.15333333333
http://www.wikidata.org/entity/Q31450059,Volcán Texontepec,19.243611111111,-99.414444444444
http://www.wikidata.org/entity/Q31450053,Volcán El Quilotzi,19.217222222222,-99.445277777778
http://www.wikidata.org/entity/Q31450101,Volcán Chalchihuites,19.106944444444,-99.302777777778
http://www.wikidata.org/entity/Q31449976,Cerro Las Vueltas,19.250555555556,-102.18611111111
http://www.wikidata.org/entity/Q31445595,Monte Barbaro,40.85,14.116666666667
http://www.wikidata.org/entity/Q31450321,Cerro Subida El Caracol,16.66518,-92.59515
http://www.wikidata.org/entity/Q31445622,Cerro La Tinaja,19.169166666667,-101.52055555556
http://www.wikidata.org/entity/Q31450273,Volcán Xistune,19.145833333333,-99.006944444444
http://www.wikidata.org/entity/Q31450096,Volcán Jumento,19.209444444444,-99.313611111111
http://www.wikidata.org/entity/Q31449923,Vulkan Snou,46.511944444444,150.86472222222
http://www.wikidata.org/entity/Q31449926,Cerro Chino,19.414722222222,-102.10583333333
http://www.wikidata.org/entity/Q31450248,Volcanes los Otates,19.064444444444,-99.118611111111
http://www.wikidata.org/entity/Q31445670,Cerro El Costillón,19.303333333333,-102.30194444444
http://www.wikidata.org/entity/Q31449896,Cerro de Afuera,19.28677,-102.28249
http://www.wikidata.org/entity/Q31450301,Cerro Volcán el Molcajete,19.409444444444,-100.48444444444
http://www.wikidata.org/entity/Q31450121,Volcán Xictontle,19.24503,-99.22742
http://www.wikidata.org/entity/Q31450019,Sopka Obrublennaya,44.085277777778,132.80972222222
http://www.wikidata.org/entity/Q31450064,Volcán Emerenciano,19.24718,-99.38012
http://www.wikidata.org/entity/Q31450031,Sopka Mit'kina,43.669166666667,131.25555555556
http://www.wikidata.org/entity/Q31450242,Volcán Yecahuazac,19.076111111111,-99.097777777778
http://www.wikidata.org/entity/Q31450309,Volcán Gordo,18.8525,-100.12777777778
http://www.wikidata.org/entity/Q31450216,Volcán Piripitillo,19.1182,-99.11933
http://www.wikidata.org/entity/Q31450255,Volcán Pajonal,19.07822,-99.04183
http://www.wikidata.org/entity/Q31450162,Volcán Quimixtepec,19.06159,-99.12615
http://www.wikidata.org/entity/Q31450111,Volcán Cajete,19.1063,-99.246
http://www.wikidata.org/entity/Q31450017,Volcán Tres Cruces,19.09476,-99.47784
http://www.wikidata.org/entity/Q31450315,Volcán La Tinaja,18.8516,-100.1002
http://www.wikidata.org/entity/Q31445591,Camaldoli,40.8575,14.1914
http://www.wikidata.org/entity/Q31445508,Butay,9.1163888888889,124.76638888889
http://www.wikidata.org/entity/Q31450013,Sopka Boran,44.121388888889,132.89416666667
http://www.wikidata.org/entity/Q4525411,Q4525411,57.466666666667,159.55
http://www.wikidata.org/entity/Q4524701,Shisheika,57.15,161.08333333333
http://www.wikidata.org/entity/Q4538233,Q4538233,56.533333333333,158.8
http://www.wikidata.org/entity/Q4529521,Q4529521,55.95,158.43333333333
http://www.wikidata.org/entity/Q7270076,Q7270076,56.366666666667,160.83333333333
http://www.wikidata.org/entity/Q31450438,Volcán San Isidro,19.519444444444,-101.43111111111
http://www.wikidata.org/entity/Q31450357,Volcán El Comal Chico,19.74,-103.79611111111
http://www.wikidata.org/entity/Q31450731,Volcán Challhue Mauras,-15.372222222222,-72.3375
http://www.wikidata.org/entity/Q31451453,Vulkan Sredniy,56.110833333333,160.57777777778
http://www.wikidata.org/entity/Q31451439,Vulkan Trezubets,46.066666666667,150.10333333333
http://www.wikidata.org/entity/Q31454189,Vulkan Konradi,55.0925,160.55361111111
http://www.wikidata.org/entity/Q31450406,Cerro El Derrumbadero,19.773611111111,-102.00888888889
http://www.wikidata.org/entity/Q31451446,Vulkan Tolbachikskiy,55.8225,160.39194444444
http://www.wikidata.org/entity/Q31450465,Volcán El Malacate,19.7358,-101.36817
http://www.wikidata.org/entity/Q31454198,Vulkan Ketoy,47.3415,152.4388
http://www.wikidata.org/entity/Q31450743,Volcán Jenchaña,-15.52,-72.3475
http://www.wikidata.org/entity/Q31451208,Vulcan Neozhidannyy,50.679166666667,156.02777777778
http://www.wikidata.org/entity/Q31451539,Vulkan Kronotskaya Sopka,54.75262,160.53201
http://www.wikidata.org/entity/Q31450458,Volcán El Molcajete,19.74565,-101.36332
http://www.wikidata.org/entity/Q31454195,Sopka Kinchoklok,55.3658,159.7825
http://www.wikidata.org/entity/Q31450842,Mount Lolobau,-4.9146,151.1577
http://www.wikidata.org/entity/Q31451364,Sopka Paratunka,52.6575,158.03972222222
http://www.wikidata.org/entity/Q31450912,Batapona Mountain,-2.5430555555556,147.29444444444
http://www.wikidata.org/entity/Q31451391,Sopka Aynel'kan,57.493611111111,160.38722222222
http://www.wikidata.org/entity/Q31450368,Volcán San Isidro,19.62724,-103.74956
http://www.wikidata.org/entity/Q31450542,Volcán Cuatepel,19.0937,-98.86
http://www.wikidata.org/entity/Q31450700,Volcán Marhuas,-15.480555555556,-72.016944444444
http://www.wikidata.org/entity/Q31450384,Cerro Catzicapacuaritiro,19.763055555556,-102.05777777778
http://www.wikidata.org/entity/Q31454209,Vulkan Dzenzurskiy,53.6392,158.74
http://www.wikidata.org/entity/Q31450446,Volcán Rancho Seco,19.617777777778,-101.47333333333
http://www.wikidata.org/entity/Q31451519,Vulkan Massa,59.0883,161.2292
http://www.wikidata.org/entity/Q31451358,Sopka Mezhdurech'ye,52.631944444444,158.12333333333
http://www.wikidata.org/entity/Q31450529,Volcán Huipilo,19.04995,-98.8843
http://www.wikidata.org/entity/Q31451412,Vulkan Uzon,54.511666666667,159.91555555556
http://www.wikidata.org/entity/Q31451155,Solyanaya Sopka,74.0,111.5
http://www.wikidata.org/entity/Q31450737,Volcán Quinsachata,-14.1626,-71.3566
http://www.wikidata.org/entity/Q31451496,Sopka Ostraya,53.119722222222,158.19861111111
http://www.wikidata.org/entity/Q31450491,Volcán Atlalcorra,19.10917,-98.89399
http://www.wikidata.org/entity/Q31450375,Cerro Antzitacuaro,19.76083,-102.07045
http://www.wikidata.org/entity/Q31454205,Vulkan Ichinskaya Sopka,55.6786,157.718
http://www.wikidata.org/entity/Q31454213,Sopka Ded,51.316666666667,156.58333333333
http://www.wikidata.org/entity/Q31451303,Sopka Barkhatnaya,52.824444444444,158.21611111111
http://www.wikidata.org/entity/Q31451161,Sopka Dondur,52.4108,108.3683
http://www.wikidata.org/entity/Q31450477,Volcán Tlapexcua,19.09934,-98.90651
http://www.wikidata.org/entity/Q31451470,Vulkan Raykoke,48.2915,153.2481
http://www.wikidata.org/entity/Q31450550,Volcán Aholo,19.09221,-98.85452
http://www.wikidata.org/entity/Q31451418,Vulkan Unana,54.642777777778,159.7175
http://www.wikidata.org/entity/Q31454208,Vulkan Ekarma,48.9475,153.94138888889
http://www.wikidata.org/entity/Q31451371,Vulkan Bol'shoy Semlyachik,54.315555555556,160.02416666667
http://www.wikidata.org/entity/Q31450762,Volcán Chilcayoc Grande,-15.536388888889,-72.288333333333
http://www.wikidata.org/entity/Q31450509,Volcán Huehuel,19.08305,-98.94704
http://www.wikidata.org/entity/Q31451338,Sopka Kamennaya,52.596944444444,158.19
http://www.wikidata.org/entity/Q31454196,Sopka Khodutka,52.062222222222,157.71027777778
http://www.wikidata.org/entity/Q31450563,Volcán La Caldera,19.3384,-98.9706
http://www.wikidata.org/entity/Q31450536,Volcán del Aire,19.02337,-98.91265
http://www.wikidata.org/entity/Q31450381,Cerro Huahuarua,19.762777777778,-102.0625
http://www.wikidata.org/entity/Q31450748,Volcanes Chilcayoc,-15.523333333333,-72.312777777778
http://www.wikidata.org/entity/Q31450826,Mount Malala,-5.0514,150.1016
http://www.wikidata.org/entity/Q31450483,Volcán Ahuazatepel,19.09752,-98.91987
http://www.wikidata.org/entity/Q31451488,Sopka Piratkovskiy Pik,52.111111111111,157.85027777778
http://www.wikidata.org/entity/Q31450390,Cerro Ordáz,19.801666666667,-102.00805555556
http://www.wikidata.org/entity/Q31451167,Sopka Shagayevskaya,57.5449,162.5851
http://www.wikidata.org/entity/Q31451547,Sopka Krasnaya,57.144166666667,160.025
http://www.wikidata.org/entity/Q31451505,Gora Nachikinskaya,57.8405,162.6928
http://www.wikidata.org/entity/Q31450432,Volcán El Estribo,19.51,-101.64361111111
http://www.wikidata.org/entity/Q31451396,Vulkan Zhupanovskaya Sopka,53.590277777778,159.11166666667
http://www.wikidata.org/entity/Q31450471,Volacn Cohuazalo,19.10435,-98.91587
http://www.wikidata.org/entity/Q31450706,Volcán Yana Mauras,-15.318333333333,-72.433333333333
http://www.wikidata.org/entity/Q31451351,Sopka Krasnaya,52.611666666667,158.05
http://www.wikidata.org/entity/Q31450497,Volcán Moyocalco,19.0834,-98.93107
http://www.wikidata.org/entity/Q31451323,Sopka Skalistaya,52.541666666667,158.16888888889
http://www.wikidata.org/entity/Q31451345,Sopka Zhirovaya,52.613888888889,158.23861111111
http://www.wikidata.org/entity/Q31451297,Vulcan Tatarinova,50.305555555556,155.455
http://www.wikidata.org/entity/Q31450517,Volcán Ocoxusco,19.07149,-98.90795
http://www.wikidata.org/entity/Q31451433,Vulkan Tsentral'nyy Semlyachik,54.293333333333,159.92666666667
http://www.wikidata.org/entity/Q31450502,Volcán Huehuelcon,19.08387,-98.93765
http://www.wikidata.org/entity/Q31451477,Vulkan Poputnyy,55.0775,160.0783
http://www.wikidata.org/entity/Q31450418,Volcán El Comalito,19.77722,-102.5546
http://www.wikidata.org/entity/Q31450754,Volcán Jechapita,-15.534444444444,-72.311111111111
http://www.wikidata.org/entity/Q31450424,Volcán Mazcuta,19.74753,-101.66199
http://www.wikidata.org/entity/Q31451408,Vulkan Zavaritskogo,46.904,151.9917
http://www.wikidata.org/entity/Q31451384,Vulkan Malaya Udina,55.743888888889,160.61805555556
http://www.wikidata.org/entity/Q31454203,Vulkan Il'inskiy,51.4991,157.2039
http://www.wikidata.org/entity/Q31451329,Sopka Dlinnaya,52.561944444444,158.22916666667
http://www.wikidata.org/entity/Q31451512,Vulkan Mutnovskaya Sopka,52.4484,158.1977
http://www.wikidata.org/entity/Q31451316,Sopka Dvugorbaya,52.5154,158.1455
http://www.wikidata.org/entity/Q31450412,Cerro Las Yerbas,19.77112,-102.03154
http://www.wikidata.org/entity/Q31451403,Vulkan Zheltovskaya Sopka,51.5771,157.3281
http://www.wikidata.org/entity/Q31450781,Mount Uluman,-4.6528,145.9717
http://www.wikidata.org/entity/Q31450397,Cerro Los Pozos,19.772222222222,-102.0225
http://www.wikidata.org/entity/Q31450452,Volcán Sajo,19.74686,-101.43138
http://www.wikidata.org/entity/Q31454194,Vulkan Komarova,55.033611111111,160.72527777778
http://www.wikidata.org/entity/Q31454201,Vulkan Kambal'naya Sopka,51.303888888889,156.87583333333
http://www.wikidata.org/entity/Q31450362,Volcán La Erita,19.65145,-103.75707
http://www.wikidata.org/entity/Q31450523,Volcán Zoyazal,19.05746,-98.88958
http://www.wikidata.org/entity/Q31450351,Cerro Grande,19.515,-103.95388888889
http://www.wikidata.org/entity/Q31451483,Vulkan Ushkovskiy,56.06943,160.47049
http://www.wikidata.org/entity/Q31451458,Gora Shishel',57.4397,160.376
http://www.wikidata.org/entity/Q31451378,Vulkan Anaun,56.5275,158.48
http://www.wikidata.org/entity/Q31450719,Volcán Pabellón Mauras,-15.29,-72.461388888889
http://www.wikidata.org/entity/Q31450712,Volcán Misahuana Mauras,-15.260555555556,-72.484722222222
http://www.wikidata.org/entity/Q31454200,Vulkan Kamen',56.019444444444,160.59472222222
http://www.wikidata.org/entity/Q31451147,Vulkan Blesaka,45.352777777778,36.714166666667
http://www.wikidata.org/entity/Q31450557,Volcán Amoloc,19.10727,-98.87549
http://www.wikidata.org/entity/Q31454210,Vulkan Dvor,54.085277777778,159.43444444444
http://www.wikidata.org/entity/Q31454222,Sopka Baydara,59.305,161.5883
http://www.wikidata.org/entity/Q4438004,Spokoyny,58.133333333333,160.81666666667
http://www.wikidata.org/entity/Q4474910,Q4474910,57.771175,160.54045277778
http://www.wikidata.org/entity/Q4328180,Q4328180,-13.316666666667,48.483333333333
http://www.wikidata.org/entity/Q4278778,Q4278778,56.466666666667,159.76666666667
http://www.wikidata.org/entity/Q4457157,Tizdar,45.357036,37.099263833333
http://www.wikidata.org/entity/Q4453317,Q4453317,57.344541666667,159.97259722222
http://www.wikidata.org/entity/Q4333566,Q4333566,56.855194444444,160.045725
http://www.wikidata.org/entity/Q4370461,Q4370461,56.466666666667,159.86666666667
http://www.wikidata.org/entity/Q4315181,Q4315181,57.85,162.68333333333
http://www.wikidata.org/entity/Q4327829,Mount Yosifon,33.0571528,35.7974222
http://www.wikidata.org/entity/Q4475610,Q4475610,54.643097222222,159.71793611111
http://www.wikidata.org/entity/Q4388970,Q4388970,48.293055555556,153.25
http://www.wikidata.org/entity/Q4293695,Volcano of Milos,36.699,24.439
http://www.wikidata.org/entity/Q4453832,Tekletunup,57.707083333333,160.3224
http://www.wikidata.org/entity/Q4334163,Q4334163,56.6,158.66666666667
http://www.wikidata.org/entity/Q4524683,Q4524683,55.75,161.16666666667
http://www.wikidata.org/entity/Q4330618,Q4330618,56.99265,158.96844722222
http://www.wikidata.org/entity/Q4518690,Chyornaya Sopka,75.313055555556,113.63916666667
http://www.wikidata.org/entity/Q4287517,Q4287517,57.45,160.45
http://www.wikidata.org/entity/Q4400196,Ruruidake,44.454,146.139
http://www.wikidata.org/entity/Q4516054,Q4516054,56.15,158.3
http://www.wikidata.org/entity/Q4514578,Q4514578,55.6,157.61666666667
http://www.wikidata.org/entity/Q4327730,Har Hozek,33.0537861,35.8505889
http://www.wikidata.org/entity/Q4428426,Q4428426,45.439722222222,136.56527777778
http://www.wikidata.org/entity/Q4467084,Q4467084,55.85,157.86666666667
http://www.wikidata.org/entity/Q4379957,Q4379957,55.433333333333,157.21666666667
http://www.wikidata.org/entity/Q4458318,Titovskaya Sopka,52.008611111111,113.45888888889
http://www.wikidata.org/entity/Q4442785,Gora Stokap,44.8393,147.3441
http://www.wikidata.org/entity/Q4412857,Sedankinsky,57.266666666667,160.08333333333
http://www.wikidata.org/entity/Q4506630,Q4506630,56.63145,158.50635
http://www.wikidata.org/entity/Q4277438,Q4277438,55.75,160.61666666667
http://www.wikidata.org/entity/Q4438741,Q4438741,56.110916666667,160.57838888889
http://www.wikidata.org/entity/Q4327604,Q4327604,33.1580778,35.7790611
http://www.wikidata.org/entity/Q4496052,Harra of Arhab,15.5975,44.046111111111
http://www.wikidata.org/entity/Q4276911,Q4276911,52.283333333333,156.75
http://www.wikidata.org/entity/Q4462341,Q4462341,46.116666666667,150.2
http://www.wikidata.org/entity/Q4308670,Q4308670,57.883333333333,160.38333333333
http://www.wikidata.org/entity/Q4507856,Q4507856,56.6153,159.65124722222
http://www.wikidata.org/entity/Q4428920,Goryachaya,52.816666666667,158.15
http://www.wikidata.org/entity/Q4428920,Goryachaya,52.816666666667,158.15
http://www.wikidata.org/entity/Q4347176,Q4347176,-63.5813,-55.791763888889
http://www.wikidata.org/entity/Q4327496,Mount Odem,33.1964861,35.7555472
http://www.wikidata.org/entity/Q4367182,Q4367182,47.416666666667,152.68333333333
http://www.wikidata.org/entity/Q4347144,Q4347144,51.716666666667,157.55
http://www.wikidata.org/entity/Q4327234,Q4327234,33.2456167,35.7852139
http://www.wikidata.org/entity/Q4363429,Q4363429,57.529972222222,160.33823611111
http://www.wikidata.org/entity/Q4340749,Q4340749,55.616666666667,158.16666666667
http://www.wikidata.org/entity/Q4442861,Q4442861,55.43,158.65
http://www.wikidata.org/entity/Q4442861,Q4442861,55.43,158.65
http://www.wikidata.org/entity/Q4365213,Plosky,55.189111111111,158.47751111111
http://www.wikidata.org/entity/Q4290644,Menshoy Brat,45.38329,148.78764
http://www.wikidata.org/entity/Q4280140,Q4280140,-4.08,145.03722222222
http://www.wikidata.org/entity/Q4416865,Q4416865,57.766666666667,160.55
http://www.wikidata.org/entity/Q4442785,Gora Stokap,44.8375,147.3425
http://www.wikidata.org/entity/Q4438004,Spokoyny,58.13333333,160.81666667
http://www.wikidata.org/entity/Q4504259,Q4504259,54.278655555556,159.87698055556
http://www.wikidata.org/entity/Q4465503,Q4465503,52.543217,157.339425
http://www.wikidata.org/entity/Q4456140,Terpuk,57.2,159.83611111111
http://www.wikidata.org/entity/Q4304777,Q4304777,-14.2,167.5
http://www.wikidata.org/entity/Q4362536,Peak MNR,43.2495,42.7171452
http://www.wikidata.org/entity/Q4516190,Q4516190,48.979722222222,153.48666666667
http://www.wikidata.org/entity/Q4281547,Mascarin Peak,-46.9,37.75
http://www.wikidata.org/entity/Q4465422,Tumrok,55.383333333333,160.88333333333
http://www.wikidata.org/entity/Q4327553,Q4327553,55.916666666667,157.93333333333
http://www.wikidata.org/entity/Q4327908,Tal Saki,32.8664,35.8306
http://www.wikidata.org/entity/Q4479644,Q4479644,47.512222222222,152.81444444444
http://www.wikidata.org/entity/Q4309874,Opuahau,-37.280678,176.24064
http://www.wikidata.org/entity/Q4425558,Snezhniy,58.020277777778,160.81194444444
http://www.wikidata.org/entity/Q4476967,Ureparapara,-13.46666667,167.3166667
http://www.wikidata.org/entity/Q4454020,Q4454020,2.3782,36.599579
http://www.wikidata.org/entity/Q4363278,Piratkovsky,52.116666666667,157.85
http://www.wikidata.org/entity/Q4285556,Q4285556,-17.66666667,168.4166667
http://www.wikidata.org/entity/Q4390475,Q4390475,57.410941666667,159.99250833333
http://www.wikidata.org/entity/Q4349988,Q4349988,56.783627777778,159.44405
http://www.wikidata.org/entity/Q4290644,Menshoy Brat,45.383611111111,148.78333333333
http://www.wikidata.org/entity/Q4327352,Mount Keramim,33.2190306,35.7786889
http://www.wikidata.org/entity/Q4458318,Titovskaya Sopka,52.018611111111,113.46194444444
http://www.wikidata.org/entity/Q4323465,Q4323465,57.916666666667,160.61666666667
http://www.wikidata.org/entity/Q4327787,Mount Shifon,33.0695361,35.7696806
http://www.wikidata.org/entity/Q4424142,Q4424142,57.983333333333,160.75
http://www.wikidata.org/entity/Q4504236,Q4504236,56.844372222222,159.73175555556
http://www.wikidata.org/entity/Q4338469,Ostanets,52.146111111111,157.32194444444
http://www.wikidata.org/entity/Q4496185,Q4496185,56.433333333333,160.81666666667
http://www.wikidata.org/entity/Q4266730,Q4266730,-16.506944444444,168.34611111111
http://www.wikidata.org/entity/Q4327893,Tel Juhader,32.9272577,35.8524057
http://www.wikidata.org/entity/Q4274142,Mohabi,44.464444444444,34.101944444444
http://www.wikidata.org/entity/Q4283133,Q4283133,0.33333333333333,-90.466666666667
http://www.wikidata.org/entity/Q4328517,Q4328517,55.883333333333,157.9
http://www.wikidata.org/entity/Q4347712,Q4347712,55.816666666667,157.98333333333
http://www.wikidata.org/entity/Q4347712,Q4347712,55.816666666667,157.98333333333
http://www.wikidata.org/entity/Q4277042,Q4277042,56.683333333333,158.4
http://www.wikidata.org/entity/Q4327897,Q4327897,56.266666666667,158.41666666667
http://www.wikidata.org/entity/Q4279195,Q4279195,56.8,159.06666666667
http://www.wikidata.org/entity/Q4457089,Q4457089,56.566666666667,159.6
http://www.wikidata.org/entity/Q4465553,Q4465553,58.089311111111,160.66592222222
http://www.wikidata.org/entity/Q4493490,Furi,8.9,38.683333333333
http://www.wikidata.org/entity/Q4390689,Q4390689,47.758055555556,153.02472222222
http://www.wikidata.org/entity/Q4438597,Q4438597,57.326847222222,160.03739722222
http://www.wikidata.org/entity/Q4320720,Q4320720,55.35,159.85
http://www.wikidata.org/entity/Q4425889,Q4425889,54.147758333333,159.43923055556
http://www.wikidata.org/entity/Q11657379,Mount Akanfuji,43.374166666667,144.00638888889
http://www.wikidata.org/entity/Q8526591,Mount Furano,43.393611111111,142.63472222222
http://www.wikidata.org/entity/Q11464876,Mount Shiribetsu,42.773,140.9108
http://www.wikidata.org/entity/Q11443769,Mount Tenchō,44.044389,145.085778
http://www.wikidata.org/entity/Q12687214,Kiska,52.103,177.602
http://www.wikidata.org/entity/Q11464876,Mount Shiribetsu,42.772572,140.910348
http://www.wikidata.org/entity/Q5592578,Grafton Volcano,-36.862,174.77
http://www.wikidata.org/entity/Q7128689,Palpana,-21.5464,-68.5227
http://www.wikidata.org/entity/Q5047973,Casablanca,-40.77138889,-72.0
http://www.wikidata.org/entity/Q6920365,Mount Darnley,-59.05,-26.5
http://www.wikidata.org/entity/Q7064057,Nova Iguaçu Volcano,-22.76694444,-43.46638889
http://www.wikidata.org/entity/Q5209925,Dakataua,-5.05555556,150.10833333
http://www.wikidata.org/entity/Q6837962,Michoacán-Guanajuato volcanic field,19.85,-101.75
http://www.wikidata.org/entity/Q6904839,Monte Muambe,-16.323055555556,34.094166666667
http://www.wikidata.org/entity/Q7690917,Te Puke,-35.252083,174.030528
http://www.wikidata.org/entity/Q6164632,Tetlalmanche Volcano,19.3251,-99.0015
http://www.wikidata.org/entity/Q7786773,Thomagata Patera,25.67,165.94
http://www.wikidata.org/entity/Q5351239,El Ermitaño,-26.786944444444,-68.603333333333
http://www.wikidata.org/entity/Q6942101,Q6942101,32.9793,35.8113
http://www.wikidata.org/entity/Q6587022,Q6587022,33.15952778,35.82650278
http://www.wikidata.org/entity/Q5307516,Q5307516,11.416666666667,42.2
http://www.wikidata.org/entity/Q4530142,Volcán Ecuador,-0.016667,-91.545833
http://www.wikidata.org/entity/Q6651058,Little Mount Cameroon,4.07306,9.11583
http://www.wikidata.org/entity/Q5065021,Cerro del Nacimiento,-27.2783,-68.5247
http://www.wikidata.org/entity/Q6921213,Mount Hodson,-56.7,-27.15
http://www.wikidata.org/entity/Q6921213,Mount Hodson,-56.7,-27.15
http://www.wikidata.org/entity/Q7689271,Tawhaki Patera,3.32,76.18
http://www.wikidata.org/entity/Q6920840,Mount Fuppushi,42.71694444,141.35888889
http://www.wikidata.org/entity/Q7415041,San Pablo,-21.86666667,-68.36666667
http://www.wikidata.org/entity/Q6164654,Santiaguito,14.7394,-91.5681
http://www.wikidata.org/entity/Q5065021,Cerro del Nacimiento,-27.1957,-68.561
http://www.wikidata.org/entity/Q7796177,Thordarhyrna,64.2714002164,-17.5346777053
http://www.wikidata.org/entity/Q7690913,Te Pou Hawaiki,-36.8825,174.767
http://www.wikidata.org/entity/Q4530140,Q4530140,48.9475,153.94194444444
http://www.wikidata.org/entity/Q6164647,Q6164647,-24.3086,-66.7306
http://www.wikidata.org/entity/Q7829689,Tower Hill,-38.3,142.35
http://www.wikidata.org/entity/Q7829689,Tower Hill,-38.3,142.35
http://www.wikidata.org/entity/Q6923757,Mount Sourabaya,-59.05,-26.6
http://www.wikidata.org/entity/Q7685308,Tarahi,-35.361644,173.851927
http://www.wikidata.org/entity/Q6792514,West Molokai Volcano,21.13,-157.2
http://www.wikidata.org/entity/Q6837962,Michoacán-Guanajuato volcanic field,19.85,-101.75
http://www.wikidata.org/entity/Q6580653,Little Matterhorn,-53.0667,73.5
http://www.wikidata.org/entity/Q6164644,Peña Blanca,-26.825555555556,-68.649444444444
http://www.wikidata.org/entity/Q5064965,Cerro Prieto,32.4217,-115.306
http://www.wikidata.org/entity/Q7796177,Thordarhyrna,64.2725,-17.528611111111
http://www.wikidata.org/entity/Q6164646,Q6164646,-35.244583333333,-70.574166666667
http://www.wikidata.org/entity/Q6651058,Little Mount Cameroon,4.0744,9.1157
http://www.wikidata.org/entity/Q6109088,La Caldereta,28.673522222222,-17.771475
http://www.wikidata.org/entity/Q6164668,Q6164668,39.061405555556,-4.1382277777778
http://www.wikidata.org/entity/Q6850826,Milbanke Sound Group,52.35472222,-128.35027778
http://www.wikidata.org/entity/Q6792572,Maungaturoto,-35.370225,173.881884
http://www.wikidata.org/entity/Q6022944,Montaña de Guaza,28.05,-16.69166667
http://www.wikidata.org/entity/Q6923216,Ōtāhuhu / Mount Richmond,-36.9326,174.839
http://www.wikidata.org/entity/Q4530142,Volcán Ecuador,-0.0333333,-91.9
http://www.wikidata.org/entity/Q6620789,Singu Plateau,22.68333333,95.96666667
http://www.wikidata.org/entity/Q5064965,Cerro Prieto,32.418,-115.308
http://www.wikidata.org/entity/Q7690242,Taurere / Taylor Hill,-36.8642,174.87
http://www.wikidata.org/entity/Q7022658,Ngualla,-7.7086222,32.83932176
http://www.wikidata.org/entity/Q7689143,Tavkvetili,41.680555555556,43.721388888889
http://www.wikidata.org/entity/Q6164630,Volcán  Evermakk,18.7833,-110.95
http://www.wikidata.org/entity/Q5492444,Q5492444,14.3,-89.98333
http://www.wikidata.org/entity/Q7419347,Santa Clara Volcano,37.256944444444,-113.625
http://www.wikidata.org/entity/Q6923124,Mount Raiden,42.9042,140.4683
http://www.wikidata.org/entity/Q4533117,Q4533117,55.975813888889,157.63953333333
http://www.wikidata.org/entity/Q5979278,Monumento Natural de Los Ajaches,28.8984,-13.781958333333
http://www.wikidata.org/entity/Q6044027,Q6044027,38.6204,28.43085
http://www.wikidata.org/entity/Q6884939,Miño Volcano,-21.183333333333,-68.6
http://www.wikidata.org/entity/Q6169317,Jocotitlán,19.7381,-99.7589
http://www.wikidata.org/entity/Q5646257,Hampton Park,-36.950925,174.89544
http://www.wikidata.org/entity/Q7413507,San Carlos,3.3608333333333,8.5391666666667
http://www.wikidata.org/entity/Q7128689,Palpana,-21.546666666667,-68.5225
http://www.wikidata.org/entity/Q6923984,Mount Tabor,45.510833,-122.595556
http://www.wikidata.org/entity/Q6920651,Mount Eniwa,42.79333333,141.28555556
http://www.wikidata.org/entity/Q6919794,Mount Boucherie,49.8539,-119.581
http://www.wikidata.org/entity/Q6957032,Nabukelevu,-19.12,177.98
http://www.wikidata.org/entity/Q7490670,Shatsky Rise,32.03333333,158.0666667
http://www.wikidata.org/entity/Q5140902,Coffee Crater,57.63,-130.67
http://www.wikidata.org/entity/Q6446390,Kurose Hole,33.4,139.68
http://www.wikidata.org/entity/Q5483967,Harras of Dhamar,14.55,44.40166667
http://www.wikidata.org/entity/Q5189097,Crow Lagoon,54.7,-130.23333333333
http://www.wikidata.org/entity/Q5065021,Cerro del Nacimiento,-27.280555555556,-68.5125
http://www.wikidata.org/entity/Q5299483,Dotsero,39.6606,-107.035
http://www.wikidata.org/entity/Q6671264,Lone Butte,46.0544645,-121.8395579
http://www.wikidata.org/entity/Q6923124,Mount Raiden,42.903611111111,140.46944444444
http://www.wikidata.org/entity/Q6923124,Mount Raiden,42.903611111111,140.46944444444
http://www.wikidata.org/entity/Q4707433,Girekol,39.1,43.416666666667
http://www.wikidata.org/entity/Q7825615,Tore,-5.835,154.935
http://www.wikidata.org/entity/Q5064896,Cerro Colorado,-22.59233333,-67.92216667
http://www.wikidata.org/entity/Q6117785,Jackson Volcano,32.3001,-90.1721
http://www.wikidata.org/entity/Q6117785,Jackson Volcano,32.3001,-90.1721
http://www.wikidata.org/entity/Q7395365,S P Crater,35.582225,-111.62932222222
http://www.wikidata.org/entity/Q6638133,Q6638133,33.081932,35.8338309
http://www.wikidata.org/entity/Q5307509,Giggenbach Seamount,-30.035833,-178.7125
http://www.wikidata.org/entity/Q6920162,Mount Chūbetsu,43.591111111111,142.89444444444
http://www.wikidata.org/entity/Q7099345,Ōrākei Basin,-36.8671,174.813
http://www.wikidata.org/entity/Q6425852,Koh-i-Sultan,29.11666667,62.83333333
http://www.wikidata.org/entity/Q5674083,Q5674083,-36.8667,-71.3667
http://www.wikidata.org/entity/Q6792560,Maungataketake,-36.994635,174.747548
http://www.wikidata.org/entity/Q7682801,Tanganasoga,27.730574,-18.059021
http://www.wikidata.org/entity/Q5047973,Casablanca,-40.7635,-72.2126
http://www.wikidata.org/entity/Q6921721,Kuju Mountains,33.08222222,131.24083333
http://www.wikidata.org/entity/Q4536015,Q4536015,51.55,156.6
http://www.wikidata.org/entity/Q5139756,Cocoa Crater,57.65,-130.7
http://www.wikidata.org/entity/Q4530142,Volcán Ecuador,0.02,-91.546
http://www.wikidata.org/entity/Q5046480,Carrizozo Malpais,33.77,-106.0
http://www.wikidata.org/entity/Q7565236,Sousaki volcano,37.9367981,23.08720016
http://www.wikidata.org/entity/Q31639874,Monte Gibele,36.77667,12.01332
http://www.wikidata.org/entity/Q31458290,Goat Mountain,29.1877018,-103.4057342
http://www.wikidata.org/entity/Q31454412,Sopka Skalistaya,53.146111111111,158.035
http://www.wikidata.org/entity/Q31454282,Sopka Kamennaya,46.951111111111,134.44277777778
http://www.wikidata.org/entity/Q35723395,Volcán Tutupaca,-17.025555555556,-70.372222222222
http://www.wikidata.org/entity/Q31454296,Sopka Alban,46.678333333333,134.16083333333
http://www.wikidata.org/entity/Q31454251,Sopka Figurnaya,43.4478,131.6424
http://www.wikidata.org/entity/Q31454257,Sopka Kyamenistaya,43.379722222222,131.71888888889
http://www.wikidata.org/entity/Q31454231,Vulkan Alaid,50.859444444444,155.55527777778
http://www.wikidata.org/entity/Q31454311,Sopka Vostrushna,46.841388888889,134.16416666667
http://www.wikidata.org/entity/Q31454883,Mount Fiamoe,-13.923611111111,-171.79888888889
http://www.wikidata.org/entity/Q31454377,Sopka Talitskaya,52.291388888889,85.676388888889
http://www.wikidata.org/entity/Q31454886,Mount Mu,-13.608611111111,-172.51638888889
http://www.wikidata.org/entity/Q31454221,Vulkan Buryashchiy,54.327777777778,159.97472222222
http://www.wikidata.org/entity/Q31454308,Sopka Granichnaya,46.748611111111,134.44916666667
http://www.wikidata.org/entity/Q31454229,Sopka Aligey,57.966666666667,160.53333333333
http://www.wikidata.org/entity/Q31454365,Sopka Yerëmina,46.186666666667,133.89305555556
http://www.wikidata.org/entity/Q31454613,Sōma Yama,36.475833333333,138.90027777778
http://www.wikidata.org/entity/Q31454646,Vulkan Yermak,45.009722222222,147.85972222222
http://www.wikidata.org/entity/Q31454619,Mount Otake,29.6385,129.7131
http://www.wikidata.org/entity/Q32158686,Petit Puy de Dôme,45.77819,2.96883
http://www.wikidata.org/entity/Q31454390,Vulkan Novo-Bakening,53.943888888889,158.09805555556
http://www.wikidata.org/entity/Q31454534,Cerro El Pacayal,13.466666666667,-88.333333333333
http://www.wikidata.org/entity/Q31454534,Cerro El Pacayal,13.466666666667,-88.333333333333
http://www.wikidata.org/entity/Q31454343,Sopka Kamenistaya,46.8325,134.38611111111
http://www.wikidata.org/entity/Q31627425,Sopka Baba,51.3017,156.5967
http://www.wikidata.org/entity/Q31454783,Komaga Take,36.551666666667,139.19388888889
http://www.wikidata.org/entity/Q31647632,Puy Chopine,45.827964,2.955119
http://www.wikidata.org/entity/Q31454778,Mitsumine San,36.46092,138.88061
http://www.wikidata.org/entity/Q31663694,I Vancori,38.78874,15.21209
http://www.wikidata.org/entity/Q31454267,Sopka Khar'kovka,43.4836,131.6799
http://www.wikidata.org/entity/Q31454279,Sopka Sarovskiye Dachi,46.0925,134.3539
http://www.wikidata.org/entity/Q31454270,Sopka Golaya,43.474444444444,131.75972222222
http://www.wikidata.org/entity/Q31454370,Sopka Bol'shaya,46.563055555556,133.90944444444
http://www.wikidata.org/entity/Q31454887,Mount Mata o le Afi,-13.608888888889,-172.50722222222
http://www.wikidata.org/entity/Q31454882,Benbow,-16.2608,168.0967
http://www.wikidata.org/entity/Q31454325,Sopka Zaikina,46.985555555556,134.34805555556
http://www.wikidata.org/entity/Q31454263,Sopka Shapka,43.431111111111,131.72138888889
http://www.wikidata.org/entity/Q31602539,Mont Richard-Foy,-46.098,50.21
http://www.wikidata.org/entity/Q31454290,Sopka Vysokaya,46.670833333333,134.10333333333
http://www.wikidata.org/entity/Q31454321,Sopka Bol'shaya Griva,46.928611111111,134.21388888889
http://www.wikidata.org/entity/Q31482326,Mount Mokoto,43.704333333333,144.331
http://www.wikidata.org/entity/Q31454274,Sopka Klepochnaya,43.562222222222,131.87111111111
http://www.wikidata.org/entity/Q31454214,Vulkan Chirinkotan,48.980555555556,153.47972222222
http://www.wikidata.org/entity/Q31454335,Sopka Vidnaya,46.899166666667,134.35305555556
http://www.wikidata.org/entity/Q31454585,Phu Khao Fai Doi Pha Khok Hin Fu,18.247777777778,99.627222222222
http://www.wikidata.org/entity/Q31454217,Vulkan Chikurachki,50.3225,155.45861111111
http://www.wikidata.org/entity/Q31454374,Sopka Koftuna,45.848055555556,134.03305555556
http://www.wikidata.org/entity/Q31454361,Sopka Kamenistaya,46.17554,133.82656
http://www.wikidata.org/entity/Q31454332,Sopka Vasil'yeva,46.899444444444,134.28833333333
http://www.wikidata.org/entity/Q31682172,Puy de Montgy,45.7,2.9327777777778
http://www.wikidata.org/entity/Q31454373,Sopka Mayachnaya,45.891111111111,134.31527777778
http://www.wikidata.org/entity/Q31669898,"Puy de Montchal, Aydat",45.6925,2.9438888888889
http://www.wikidata.org/entity/Q49004614,East Crater,45.998333333333,-121.78777777778
http://www.wikidata.org/entity/Q31454612,Suzuga Take,36.555,139.15222222222
http://www.wikidata.org/entity/Q31454505,The Peak,-37.1,-12.283333333333
http://www.wikidata.org/entity/Q31454769,Mount Kamon,36.4774,138.85088
http://www.wikidata.org/entity/Q31454775,Asama Yama,36.481666666667,138.93
http://www.wikidata.org/entity/Q31454368,Sopka Ostraya,46.418333333333,133.99694444444
http://www.wikidata.org/entity/Q31454784,Maru Yama,32.453055555556,139.76777777778
http://www.wikidata.org/entity/Q31454774,Futatsu Dake,36.48153,138.90403
http://www.wikidata.org/entity/Q31682156,Puy de Montjuger,45.70532,2.9421
http://www.wikidata.org/entity/Q31454329,Sopka Vostryaki,46.881944444444,134.17416666667
http://www.wikidata.org/entity/Q31454324,Sopka Kamenistaya Griva,46.985,134.26
http://www.wikidata.org/entity/Q31454381,Sopka Karasukskaya,52.294722222222,85.661666666667
http://www.wikidata.org/entity/Q31454885,Mount Savai'i,-13.998055555556,-171.53305555556
http://www.wikidata.org/entity/Q31454350,Sopka Maloguminskaya,46.789444444444,134.37777777778
http://www.wikidata.org/entity/Q35723403,Volcán Yucamane,-17.1825,-70.198888888889
http://www.wikidata.org/entity/Q31454763,Hachi Yama,36.69047,138.51381
http://www.wikidata.org/entity/Q31454284,Sopka Bol'shoy Solntsepek,46.952222222222,134.37833333333
http://www.wikidata.org/entity/Q31669935,Puy de Vichatel,45.68652,2.96082
http://www.wikidata.org/entity/Q35737304,Deer Mountain,37.698611111111,-119.01222222222
http://www.wikidata.org/entity/Q31454782,Maekake Yama,36.40382,138.51323
http://www.wikidata.org/entity/Q31454339,Sopka Mayachnaya,46.901111111111,134.42111111111
http://www.wikidata.org/entity/Q31458290,Goat Mountain,29.1877,-103.40573
http://www.wikidata.org/entity/Q31454298,Sopka Koz'ya,46.698055555556,134.34027777778
http://www.wikidata.org/entity/Q32161590,Puy de la Moréno,45.73748,2.94513
http://www.wikidata.org/entity/Q31454226,Sopka Asacha,52.3555,157.8295
http://www.wikidata.org/entity/Q31454357,Sopka Dom,46.890833333333,134.48083333333
http://www.wikidata.org/entity/Q31454776,Takanosu Yama,36.46113,138.90567
http://www.wikidata.org/entity/Q31454287,Sopka Uglevaya,46.702777777778,134.10888888889
http://www.wikidata.org/entity/Q31454301,Sopka Mayachnaya,46.693611111111,134.41027777778
http://www.wikidata.org/entity/Q31454770,Bingushi Yama,36.4881,138.86291
http://www.wikidata.org/entity/Q31669881,Puy de Pourcharet,45.70915,2.93153
http://www.wikidata.org/entity/Q31454647,Drakon,45.01936,147.88868
http://www.wikidata.org/entity/Q31602539,Mont Richard-Foy,-46.0962,50.2166
http://www.wikidata.org/entity/Q31454294,Sopka Pasechnaya,46.728055555556,134.07333333333
http://www.wikidata.org/entity/Q31454633,Mount Haruna Fuji,36.4775,138.87805555556
http://www.wikidata.org/entity/Q31454532,Cerro El Taburete,13.4367,-88.5317
http://www.wikidata.org/entity/Q38250852,San Jerónimo volcano,-24.233333333333,-66.5
http://www.wikidata.org/entity/Q31454785,Mount Ōtaira,33.12554,139.6883
http://www.wikidata.org/entity/Q31454418,Sopka Sinyaya,43.8779,133.8044
http://www.wikidata.org/entity/Q31454305,Sopka Uglovaya,46.7275,134.39138888889
http://www.wikidata.org/entity/Q31454219,Vulkan Chernogo,46.522222222222,150.86666666667
http://www.wikidata.org/entity/Q31454626,Mount Kurobi,36.560833333333,139.19333333333
http://www.wikidata.org/entity/Q31718917,Volcán San Bartolo,19.11209,-99.09193
http://www.wikidata.org/entity/Q31454384,Sopka Khutorskaya,52.26,85.730833333333
http://www.wikidata.org/entity/Q31454772,Eboshiga Dake,36.48922,138.87456
http://www.wikidata.org/entity/Q31454272,Sopka Merkur'yevskaya,43.6235,131.8569
http://www.wikidata.org/entity/Q31454316,Sopka Lysaya,46.857777777778,134.35916666667
http://www.wikidata.org/entity/Q12772039,Mutsu-Hiuchi-dake,41.436389,141.056389
http://www.wikidata.org/entity/Q13667738,Karpinsky Group,50.140277777778,155.38138888889
http://www.wikidata.org/entity/Q16662168,Karymshina,52.4,158.0
http://www.wikidata.org/entity/Q13425731,Kuttara,42.488889,141.163333
http://www.wikidata.org/entity/Q12771351,Megata,39.955681,139.7386
http://www.wikidata.org/entity/Q13667738,Karpinsky Group,50.141944444444,155.38083333333
http://www.wikidata.org/entity/Q16662168,Karymshina,52.9,157.7666667
http://www.wikidata.org/entity/Q11737565,Kawi-Butak,-7.92,112.45
http://www.wikidata.org/entity/Q11448038,Mount Korei,35.437777777778,133.47916666667
http://www.wikidata.org/entity/Q11448038,Mount Korei,35.437777777778,133.47916666667
http://www.wikidata.org/entity/Q11666652,Mount Iizuna,36.733333333333,138.13333333333
http://www.wikidata.org/entity/Q11536251,Mount Neko,32.8835,131.14438889
http://www.wikidata.org/entity/Q10871808,Mount Tenjō,34.21919444,139.15294444
http://www.wikidata.org/entity/Q12767180,Huambo,-15.8333,-72.13333
http://www.wikidata.org/entity/Q11555159,Mount Hōonji,36.063333,136.5975
http://www.wikidata.org/entity/Q8536691,Hiruzen,35.316666666667,133.68333333333
http://www.wikidata.org/entity/Q12255387,Bobrof Volcano,51.90833333,-177.4388889
http://www.wikidata.org/entity/Q11737565,Kawi-Butak,-7.92,112.45
http://www.wikidata.org/entity/Q11737565,Kawi-Butak,-7.92,112.45
http://www.wikidata.org/entity/Q12764166,Clark Seamount,-36.446,177.839
http://www.wikidata.org/entity/Q12765003,Durango volcanic field,24.15,-104.45
http://www.wikidata.org/entity/Q11317930,Mount Chisenupuri,42.8883,140.5958
http://www.wikidata.org/entity/Q7960063,East Molokai Volcano,21.11,-156.84
http://www.wikidata.org/entity/Q11597839,Tateyama Volcano,36.571,137.59
http://www.wikidata.org/entity/Q11666652,Mount Iizuna,36.739166666667,138.13361111111
http://www.wikidata.org/entity/Q11324564,Mount Nitonupuri,42.885278,140.618056
http://www.wikidata.org/entity/Q11669749,Mount Takasaki,33.251944,131.524167
http://www.wikidata.org/entity/Q11580561,Shiratori Yama,31.96,130.83305555556
http://www.wikidata.org/entity/Q12761993,Q12761993,23.0,10.83333
http://www.wikidata.org/entity/Q11648144,Mount Kamafuse,41.278611,141.12
http://www.wikidata.org/entity/Q11669749,Mount Takasaki,33.2522,131.5235
http://www.wikidata.org/entity/Q11555159,Mount Hōonji,36.063333333333,136.5975
http://www.wikidata.org/entity/Q11282733,Mount Akandana,36.2,137.57222222222
http://www.wikidata.org/entity/Q8536691,Hiruzen,35.325,133.66361111
http://www.wikidata.org/entity/Q8536451,Harra es-Sawad,13.58,46.12
http://www.wikidata.org/entity/Q11580627,Mount Shirataka,38.222777777778,140.17305555556
http://www.wikidata.org/entity/Q12763633,Q12763633,4.768889,96.8211
http://www.wikidata.org/entity/Q11479422,Mount Sukumo,35.005,139.03722222222
http://www.wikidata.org/entity/Q11479422,Mount Sukumo,35.005,139.03722222222
http://www.wikidata.org/entity/Q11463980,Mount Onoko,36.581111111111,138.9375
http://www.wikidata.org/entity/Q12764193,Comondu-La Purisima,26.0,-111.92
http://www.wikidata.org/entity/Q11582573,Mount Mayu,32.76833333,130.33944444
http://www.wikidata.org/entity/Q11536092,Mount Kurino,31.9475,130.7958
http://www.wikidata.org/entity/Q11678078,Mount Kurohime,36.8175,138.1283
http://www.wikidata.org/entity/Q8553599,Medicine Lake Volcano,41.582525,-121.59953055556
http://www.wikidata.org/entity/Q11439588,Ōno Dake,31.256,130.51680556
http://www.wikidata.org/entity/Q11439588,Ōno Dake,31.256111111111,130.51666666667
http://www.wikidata.org/entity/Q11496825,Mount Ōgi,35.439722222222,134.44083333333
http://www.wikidata.org/entity/Q11115874,Mount Manaia,-35.818309,174.516985
http://www.wikidata.org/entity/Q11463980,Mount Onoko,36.580833,138.936944
http://www.wikidata.org/entity/Q11678280,Mount Kurofu,36.405833333333,138.48861111111
http://www.wikidata.org/entity/Q11647034,Mount Kinbō,32.814055555556,130.63911111111
http://www.wikidata.org/entity/Q11567195,Karasugasen,35.355833,133.570556
http://www.wikidata.org/entity/Q11536251,Mount Neko,32.885,131.15055555556
http://www.wikidata.org/entity/Q10392610,Q10392610,38.7514,-27.4493
http://www.wikidata.org/entity/Q11381590,Mount Garan,33.3175,131.42777777778
http://www.wikidata.org/entity/Q11539369,Mount Moriyoshi,39.983333333333,140.55
http://www.wikidata.org/entity/Q8539015,Batea Mahuida Volcano,-38.8189,-71.1928
http://www.wikidata.org/entity/Q8528919,Mount Iō,30.79305556,130.30527778
http://www.wikidata.org/entity/Q12770076,La Gloria,19.33,-97.25
http://www.wikidata.org/entity/Q12766129,Fuerteventura,28.358333333333,-15.016666666667
http://www.wikidata.org/entity/Q12770190,Las Cumbres,19.15,-97.27
http://www.wikidata.org/entity/Q8528919,Mount Iō,30.7928,130.3049
http://www.wikidata.org/entity/Q8524527,Itcha Mountain,52.7175,-124.83
http://www.wikidata.org/entity/Q10717030,Central Skåne Volcanic Province,55.992928,13.52097
http://www.wikidata.org/entity/Q11536092,Mount Kurino,31.954639,130.791694
http://www.wikidata.org/entity/Q11580561,Shiratori Yama,31.956583,130.838083
http://www.wikidata.org/entity/Q12282920,Kitumbeine Volcano,-2.8795,36.211
http://www.wikidata.org/entity/Q9184203,Volcán Cacho Negro,10.195833333333,-84.046111111111
http://www.wikidata.org/entity/Q12617235,Quimsachata,-14.16555556,-71.35583333
http://www.wikidata.org/entity/Q11647034,Mount Kinbō,32.813888888889,130.63861111111
http://www.wikidata.org/entity/Q11691399,Cerro Congo,10.254444444444,-84.227222222222
http://www.wikidata.org/entity/Q11520725,Mount Motoshirane,36.62494,138.53772
http://www.wikidata.org/entity/Q12687223,Tumble Buttes,40.671944444444,-121.55
http://www.wikidata.org/entity/Q11608718,Utsukushigahara,36.225797,138.107442
http://www.wikidata.org/entity/Q12411374,Q12411374,33.06523333,35.84440833
http://www.wikidata.org/entity/Q12765122,East Diamante,15.93,145.67
http://www.wikidata.org/entity/Q11435625,Mount Dainichi,36.161944,136.493056
http://www.wikidata.org/entity/Q11581553,Mount Mekunnai,42.903611111111,140.46944444444
http://www.wikidata.org/entity/Q11581553,Mount Mekunnai,42.903611111111,140.46944444444
http://www.wikidata.org/entity/Q11435625,Mount Dainichi,36.1635,136.4925
http://www.wikidata.org/entity/Q12769898,Kutum Volcanic Field,14.57,25.85
http://www.wikidata.org/entity/Q11678280,Mount Kurofu,36.405278,138.488611
http://www.wikidata.org/entity/Q11691399,Cerro Congo,10.254,-84.228
http://www.wikidata.org/entity/Q12255387,Bobrof Volcano,51.9067,-177.4422
http://www.wikidata.org/entity/Q11566097,Nigorikawa,42.116667,140.433333
http://www.wikidata.org/entity/Q11322387,Mount Tōnoshike Nupuri,42.603611,140.843056
http://www.wikidata.org/entity/Q12770461,Liado Hayk,7.77,38.78
http://www.wikidata.org/entity/Q12600001,Sanbangsan,33.240555555556,126.31361111111
http://www.wikidata.org/entity/Q11520725,Mount Motoshirane,36.622939,138.531667
http://www.wikidata.org/entity/Q11557224,Mount Asakuksa,37.34365,139.23351
http://www.wikidata.org/entity/Q11434371,Mount Ōmuro,34.904166666667,139.09444444444
http://www.wikidata.org/entity/Q11574215,Mount Koshiki,31.965,130.859167
http://www.wikidata.org/entity/Q12766853,Hijiori,38.605833,140.178333
http://www.wikidata.org/entity/Q11317930,Mount Chisenupuri,42.888056,140.596667
http://www.wikidata.org/entity/Q12763846,Cerro Nicholson,-16.260556,-71.73
http://www.wikidata.org/entity/Q11597839,Tateyama Volcano,36.572222222222,137.62083333333
http://www.wikidata.org/entity/Q11567236,Eboshi-dake,36.43333333,138.38722222
http://www.wikidata.org/entity/Q11536102,Mount Kurikoma,38.961111111111,140.78888888889
http://www.wikidata.org/entity/Q8524971,Urzelina (volcano),38.6675,-28.1219
http://www.wikidata.org/entity/Q11444525,Mount Tarō,36.81778,139.48278
http://www.wikidata.org/entity/Q12282920,Kitumbeine Volcano,-2.8795,36.211
http://www.wikidata.org/entity/Q11678078,Mount Kurohime,36.813333333333,138.12722222222
http://www.wikidata.org/entity/Q7960255,Waiowa,-9.56667,149.075
http://www.wikidata.org/entity/Q11659487,Mount Hanare,36.35388889,138.61202778
http://www.wikidata.org/entity/Q11444525,Mount Tarō,36.816666666667,139.48333333333
http://www.wikidata.org/entity/Q12262786,Q12262786,64.87361111,-23.24888889
http://www.wikidata.org/entity/Q109021102,Q109021102,60.8449,4.6411
http://www.wikidata.org/entity/Q85786701,Mount Roundtop,54.797777777778,-163.59583333333
http://www.wikidata.org/entity/Q49083074,The Wart,45.914444444444,-121.83138888889
http://www.wikidata.org/entity/Q111209053,Q111209053,69.78159,30.75286
http://www.wikidata.org/entity/Q92096639,Puy de la Combregrasse,45.668055555556,2.9480555555556
http://www.wikidata.org/entity/Q111207539,Q111207539,69.82648897,30.44403148
http://www.wikidata.org/entity/Q104972441,Q104972441,15.390058333333,167.83045277778
http://www.wikidata.org/entity/Q49063762,Potato Hill,46.333055555556,-121.50111111111
http://www.wikidata.org/entity/Q98104210,Mount Ganseki,43.255277777778,143.1175
http://www.wikidata.org/entity/Q53565991,Pipkin,34.68666667,-116.62
http://www.wikidata.org/entity/Q104846435,Mount Takawangha,51.869167,-178.014167
http://www.wikidata.org/entity/Q109017135,Q109017135,60.43391,4.91301
http://www.wikidata.org/entity/Q109037819,Q109037819,60.8446,4.6327
http://www.wikidata.org/entity/Q109016926,Q109016926,59.9163678,5.2019289
http://www.wikidata.org/entity/Q109039301,Q109039301,45.4325804,-73.7340379
http://www.wikidata.org/entity/Q99709361,Q99709361,19.328130555556,-99.749219444444
http://www.wikidata.org/entity/Q109035993,Q109035993,59.5892,5.1616
http://www.wikidata.org/entity/Q109037821,Q109037821,60.7873,4.6803
http://www.wikidata.org/entity/Q109021854,Q109021854,60.8421,4.6405
http://www.wikidata.org/entity/Q98078060,Krýsuvík,63.93,-22.1
http://www.wikidata.org/entity/Q109311691,Q109311691,60.33876,5.1642
http://www.wikidata.org/entity/Q97292947,Puy de la Rodde,45.6625,2.955
http://www.wikidata.org/entity/Q109017105,Q109017105,59.8011,5.0449
http://www.wikidata.org/entity/Q96260282,Volcán de Siete Fuentes,28.282444444444,-16.512916666667
http://www.wikidata.org/entity/Q107467286,Q107467286,49.7750233,17.5246697
http://www.wikidata.org/entity/Q49067128,Red Butte,46.245833333333,-121.45833333333
http://www.wikidata.org/entity/Q109017219,Q109017219,59.90742,5.22429
http://www.wikidata.org/entity/Q97823981,Mount Tenbo,43.264166666667,143.12527777778
http://www.wikidata.org/entity/Q97657513,Mount Nishibetsu,43.553611111111,144.58166666667
http://www.wikidata.org/entity/Q97957440,Stóra-Eldborg undir Geitahlíð,63.855833333333,-21.998333333333
http://www.wikidata.org/entity/Q109017215,Q109017215,60.30203,4.91978
http://www.wikidata.org/entity/Q85476201,Syni,56.1971,117.3384
http://www.wikidata.org/entity/Q65166425,Yuhualixqui,19.316216666667,-99.052736111111
http://www.wikidata.org/entity/Q109017219,Q109017219,59.90742,5.22429
http://www.wikidata.org/entity/Q109037815,Q109037815,60.7763,4.6717
http://www.wikidata.org/entity/Q63378369,Caldeirão do Corvo,39.7,-31.1
http://www.wikidata.org/entity/Q111207407,Q111207407,60.32759,5.15806
http://www.wikidata.org/entity/Q111209034,Q111209034,69.79974423,30.66375545
http://www.wikidata.org/entity/Q63378645,Furnas,37.762134,-25.321521
http://www.wikidata.org/entity/Q109046165,Q109046165,64.45,-17.55
